{"type":"FeatureCollection","features":[{"properties":{"@id":262639374,"@type":"node","board_type":"history","disused":"yes","information":"board","man_made":"adit","name":"Stollen der Grube Nachod","operator":"Verein für Siegerländer Bergbau e.V.","tourism":"information","website":"http://bergbau-siegerland.de/"},"type":"Feature","id":"node/262639374","geometry":{"type":"Point","coordinates":[8.0295579,50.8336668]}},{"properties":{"@id":598702087,"@type":"node","board_type":"history","check_date":"2024-03-12","information":"board","name":"Stadtdenkmal Glückstadt","tourism":"information","traffic_sign":"DE:386.3"},"type":"Feature","id":"node/598702087","geometry":{"type":"Point","coordinates":[9.7292813,53.7280054]}},{"properties":{"@id":638611404,"@type":"node","board_type":"history","description":"Kulturweg Aschaffenburg 1 - Infotafel","information":"board","name":"Schießplatz im Strietwald","operator":"Archäologisches Spessartprojekt","ref":"5","tourism":"information","website":"https://www.spessartprojekt.de/wordpress/wp-content/uploads/2020/04/KW_AB_1_Strietwald_2020_T_5_Schiessplatz.pdf"},"type":"Feature","id":"node/638611404","geometry":{"type":"Point","coordinates":[9.1083498,49.9928346]}},{"properties":{"@id":702977956,"@type":"node","board_type":"history","check_date":"2021-12-22","information":"board","name":"Dom zu Verden","tourism":"information"},"type":"Feature","id":"node/702977956","geometry":{"type":"Point","coordinates":[9.3138857,52.9287182]}},{"properties":{"@id":717706845,"@type":"node","board_type":"history","check_date":"2022-05-29","information":"board","name":"Dom zu Verden","tourism":"information"},"type":"Feature","id":"node/717706845","geometry":{"type":"Point","coordinates":[9.2225665,52.9768874]}},{"properties":{"@id":839050907,"@type":"node","board_type":"history","check_date":"2023-08-06","information":"board","name":"Burg Steinsberg im Kraichgau","tourism":"information","traffic_sign":"DE:386-52"},"type":"Feature","id":"node/839050907","geometry":{"type":"Point","coordinates":[8.9421999,49.2266651]}},{"properties":{"@id":842498478,"@type":"node","board_type":"history","description":"1000 Jahre auf 1000 Meter; Beschreibung der 24 Stationen","information":"board","name":"Aubinger Geschichtspfad","tourism":"information"},"type":"Feature","id":"node/842498478","geometry":{"type":"Point","coordinates":[11.4143543,48.1671241]}},{"properties":{"@id":858652536,"@type":"node","board_type":"history","check_date":"2022-07-21","information":"board","name":"Schweinfurt - Industrie und Kunst","tourism":"information","traffic_sign":"DE:386.3"},"type":"Feature","id":"node/858652536","geometry":{"type":"Point","coordinates":[10.2923994,50.0302455]}},{"properties":{"@id":858652556,"@type":"node","board_type":"history","check_date":"2023-08-01","information":"board","name":"Gochsheim und Sennfeld - Kaiserlich freihe Reichsdörfer","tourism":"information","traffic_sign":"DE:386.3"},"type":"Feature","id":"node/858652556","geometry":{"type":"Point","coordinates":[10.3696959,50.0078027]}},{"properties":{"@id":858652560,"@type":"node","board_type":"history","check_date":"2022-12-09","information":"board","name":"Balthasar-Neumann-Schloßanlage Werneck","tourism":"information","traffic_sign":"DE:386.3"},"type":"Feature","id":"node/858652560","geometry":{"type":"Point","coordinates":[10.15652,50.011883]}},{"properties":{"@id":858743632,"@type":"node","board_type":"history","check_date":"2024-08-23","information":"board","name":"Museum Sinsheim","tourism":"information","traffic_sign":"DE:386.3"},"type":"Feature","id":"node/858743632","geometry":{"type":"Point","coordinates":[8.9605291,49.2227892]}},{"properties":{"@id":858743669,"@type":"node","board_type":"history","check_date":"2022-02-06","information":"board","name":"Fachwerkstadt Eppingen","tourism":"information","traffic_sign":"DE:386.3"},"type":"Feature","id":"node/858743669","geometry":{"type":"Point","coordinates":[9.008342,49.2164176]}},{"properties":{"@id":858743678,"@type":"node","board_type":"history","check_date":"2021-07-26","information":"board","name":"Dom zu Speyer","source":"http://www.mapillary.com/map/im/fyvI7wRtMEba_Khkwz8N9g","tourism":"information","traffic_sign":"DE:386.3"},"type":"Feature","id":"node/858743678","geometry":{"type":"Point","coordinates":[8.5177703,49.3310931]}},{"properties":{"@id":858957034,"@type":"node","board_type":"history","check_date":"2023-08-13","direction":"276","information":"board","name":"Malsch Wallfahrtskapelle","tourism":"information","traffic_sign":"DE:386.3"},"type":"Feature","id":"node/858957034","geometry":{"type":"Point","coordinates":[8.6570541,49.2717466]}},{"properties":{"@id":914609295,"@type":"node","board_type":"history","check_date":"2023-10-14","direction":"300","information":"board","name":"Museumsdorf Bayerischer Wald","tourism":"information","traffic_sign":"DE:386.3"},"type":"Feature","id":"node/914609295","geometry":{"type":"Point","coordinates":[13.2305614,48.6767763]}},{"properties":{"@id":914609377,"@type":"node","board_type":"history","check_date":"2023-10-14","direction":"300","information":"board","name":"Klosterwinkel","tourism":"information","traffic_sign":"DE:386.3"},"type":"Feature","id":"node/914609377","geometry":{"type":"Point","coordinates":[13.1798978,48.7042546]}},{"properties":{"@id":914609422,"@type":"node","board_type":"history","check_date":"2021-09-10","information":"board","name":"Markt Lupburg - Historischer Ortskern","tourism":"information","traffic_sign":"DE:386.3"},"type":"Feature","id":"node/914609422","geometry":{"type":"Point","coordinates":[11.7019057,49.1804372]}},{"properties":{"@id":914609457,"@type":"node","board_type":"history","direction":"300","information":"board","name":"Ziegel + Kalkmuseum Flintsbach","tourism":"information","traffic_sign":"DE:386.3"},"type":"Feature","id":"node/914609457","geometry":{"type":"Point","coordinates":[13.1069647,48.7426798]}},{"properties":{"@id":914609512,"@type":"node","board_type":"history","check_date":"2022-05-20","information":"board","name":"Festspielstadt Altdorf - Historische Universität - Metropolregion Nürnberg","tourism":"information","traffic_sign":"DE:386.3"},"type":"Feature","id":"node/914609512","geometry":{"type":"Point","coordinates":[11.3132509,49.3903316]}},{"properties":{"@id":914609536,"@type":"node","board_type":"history","direction":"300","information":"board","name":"Donautal - Archäologie, Asambarock","tourism":"information","traffic_sign":"DE:386.3","wheelchair":"no"},"type":"Feature","id":"node/914609536","geometry":{"type":"Point","coordinates":[13.0104681,48.7880168]}},{"properties":{"@id":914609549,"@type":"node","board_type":"history","check_date":"2023-10-14","direction":"320","information":"board","name":"Vilshofen - Abtei Schweiglberg","tourism":"information","traffic_sign":"DE:386.3"},"type":"Feature","id":"node/914609549","geometry":{"type":"Point","coordinates":[13.1862593,48.7025667]}},{"properties":{"@id":914677378,"@type":"node","board_type":"history","check_date":"2023-08-20","direction":"100","information":"board","name":"Römerschatz Straubing","tourism":"information","traffic_sign":"DE:386.3"},"type":"Feature","id":"node/914677378","geometry":{"type":"Point","coordinates":[12.6564085,48.9390061]}},{"properties":{"@id":914677380,"@type":"node","board_type":"history","direction":"140","information":"board","name":"Abtei Metten - Bibliothek","tourism":"information","traffic_sign":"DE:386.3"},"type":"Feature","id":"node/914677380","geometry":{"type":"Point","coordinates":[12.9097412,48.8321535]}},{"properties":{"@id":934429540,"@type":"node","board_type":"history","check_date":"2023-06-14","direction":"237","information":"board","name":"Keltenmuseum Hochdorf/Enz","tourism":"information","traffic_sign":"DE:386.3"},"type":"Feature","id":"node/934429540","geometry":{"type":"Point","coordinates":[9.0966372,48.8363448]}},{"properties":{"@id":934429550,"@type":"node","board_type":"history","check_date":"2024-04-02","direction":"301","information":"board","name":"Reuchlinhaus - Goldstadt Pforzheim","tourism":"information","traffic_sign":"DE:386.3"},"type":"Feature","id":"node/934429550","geometry":{"type":"Point","coordinates":[8.6094582,48.9198347]}},{"properties":{"@id":934429565,"@type":"node","board_type":"history","check_date":"2025-01-15","direction":"217","information":"board","name":"Stettenfels, Burg - Schloß - Park","tourism":"information","traffic_sign":"DE:386.3"},"type":"Feature","id":"node/934429565","geometry":{"type":"Point","coordinates":[9.2721041,49.06172]}},{"properties":{"@id":934429573,"@type":"node","board_type":"history","direction":"258","information":"board","name":"Weltkulturerbe Kloster Maulbronn","tourism":"information","traffic_sign":"DE:386.3"},"type":"Feature","id":"node/934429573","geometry":{"type":"Point","coordinates":[8.6943909,48.909643]}},{"properties":{"@id":936405903,"@type":"node","board_type":"history","information":"board","name":"Beschauerbrücke","ref":"19","tourism":"information"},"type":"Feature","id":"node/936405903","geometry":{"type":"Point","coordinates":[11.0838402,52.2156723]}},{"properties":{"@id":936405905,"@type":"node","board_type":"history","information":"board","name":"Gamma-Kanone (demontierte Überreste)","ref":"23","tourism":"information"},"type":"Feature","id":"node/936405905","geometry":{"type":"Point","coordinates":[11.0849036,52.2152327]}},{"properties":{"@id":936405916,"@type":"node","board_type":"history","information":"board","name":"Sowjetische Alliiertenkontrolle","ref":"21","tourism":"information"},"type":"Feature","id":"node/936405916","geometry":{"type":"Point","coordinates":[11.0839871,52.2159087]}},{"properties":{"@id":936405956,"@type":"node","board_type":"history","information":"board","name":"Kommandoturm","ref":"20","tourism":"information"},"type":"Feature","id":"node/936405956","geometry":{"type":"Point","coordinates":[11.0832456,52.2159591]}},{"properties":{"@id":936405965,"@type":"node","board_type":"history","information":"board","name":"Rollschranke","ref":"22","tourism":"information"},"type":"Feature","id":"node/936405965","geometry":{"type":"Point","coordinates":[11.0844317,52.215595]}},{"properties":{"@id":944462060,"@type":"node","board_type":"history","description":"Unterrichtungstafel Nordsternpark","information":"board","name":"Nordsternpark","tourism":"information"},"type":"Feature","id":"node/944462060","geometry":{"type":"Point","coordinates":[7.1013504,51.57045]}},{"properties":{"@id":944466969,"@type":"node","board_type":"history","description":"Unterrichtungstafel Umspannwerk Recklinghausen","information":"board","name":"Umspannwerk Recklinghausen","tourism":"information"},"type":"Feature","id":"node/944466969","geometry":{"type":"Point","coordinates":[7.2767451,51.5986282]}},{"properties":{"@id":944489695,"@type":"node","board_type":"history","check_date":"2024-12-06","description":"Unterrichtungstafel Schloss Nordkirchen","information":"board","name":"Schloss Nordkirchen","tourism":"information"},"type":"Feature","id":"node/944489695","geometry":{"type":"Point","coordinates":[7.6400837,51.774025]}},{"properties":{"@id":944497069,"@type":"node","board_type":"history","check_date":"2021-05-16","description":"Unterichtungstafel Maximilianpark","information":"board","name":"Maximilianpark","tourism":"information"},"type":"Feature","id":"node/944497069","geometry":{"type":"Point","coordinates":[7.771165,51.614718]}},{"properties":{"@id":960504851,"@type":"node","board_type":"history","check_date":"2021-12-04","information":"board","name":"Altstadt Bamberg - Weltkulturerbe","tourism":"information","traffic_sign":"DE:386.3"},"type":"Feature","id":"node/960504851","geometry":{"type":"Point","coordinates":[10.8934542,49.9519168]}},{"properties":{"@id":1097744738,"@type":"node","board_type":"history","check_date":"2021-09-29","direction":"353","information":"board","name":"Stettenfels - Burg - Schloß - Park","tourism":"information","traffic_sign":"DE:386.3"},"type":"Feature","id":"node/1097744738","geometry":{"type":"Point","coordinates":[9.3029139,49.113539]}},{"properties":{"@id":1097748330,"@type":"node","board_type":"history","check_date":"2025-01-14","direction":"49","information":"board","name":"Altstadt Bietigheim","tourism":"information","traffic_sign":"DE:386.3"},"type":"Feature","id":"node/1097748330","geometry":{"type":"Point","coordinates":[9.2089012,48.953336]}},{"properties":{"@id":1097748331,"@type":"node","board_type":"history","check_date":"2025-01-15","direction":"30","information":"board","name":"Keltenmuseum Hochdorf/Enz","tourism":"information","traffic_sign":"DE:386.3"},"type":"Feature","id":"node/1097748331","geometry":{"type":"Point","coordinates":[9.134957,48.8710805]}},{"properties":{"@id":1097748332,"@type":"node","board_type":"history","check_date":"2025-01-15","direction":"8","information":"board","name":"Schillerstadt Marbach","tourism":"information","traffic_sign":"DE:386.3"},"type":"Feature","id":"node/1097748332","geometry":{"type":"Point","coordinates":[9.2328374,48.9972848]}},{"properties":{"@id":1106371596,"@type":"node","board_type":"history","description":"Kulturradweg Kurmainzer Herz","direction":"45","information":"board","name":"Schachenbrunnen","ref":"14","tourism":"information","website":"https://www.spessartprojekt.de/kulturwege/kurmainz/taf_14.php"},"type":"Feature","id":"node/1106371596","geometry":{"type":"Point","coordinates":[8.9507184,50.020527]}},{"properties":{"@id":1211712297,"@type":"node","board_type":"history","information":"board","name":"Gräberfeld Pegnitzanger","tourism":"information"},"type":"Feature","id":"node/1211712297","geometry":{"type":"Point","coordinates":[11.5106493,49.7845714]}},{"properties":{"@id":1251182386,"@type":"node","board_type":"history","check_date":"2021-09-05","information":"board","name":"Leer Historische Altstadt","tourism":"information"},"type":"Feature","id":"node/1251182386","geometry":{"type":"Point","coordinates":[7.571203,53.2603487]}},{"properties":{"@id":1288982992,"@type":"node","board_type":"history","check_date":"2021-09-29","direction":"83","information":"board","name":"Hohenloher Freilichtmuseum","tourism":"information","traffic_sign":"DE:386.3"},"type":"Feature","id":"node/1288982992","geometry":{"type":"Point","coordinates":[9.8333043,49.1737406]}},{"properties":{"@id":1288982999,"@type":"node","board_type":"history","check_date":"2021-09-29","direction":"95","information":"board","name":"Stiftskirche Öhringen","tourism":"information","traffic_sign":"DE:386.3"},"type":"Feature","id":"node/1288982999","geometry":{"type":"Point","coordinates":[9.5244828,49.2115221]}},{"properties":{"@id":1288983015,"@type":"node","board_type":"history","check_date":"2021-09-29","information":"board","name":"Schloß Langenburg","tourism":"information","traffic_sign":"DE:386.3"},"type":"Feature","id":"node/1288983015","geometry":{"type":"Point","coordinates":[9.9091891,49.177889]}},{"properties":{"@id":1317492517,"@type":"node","board_type":"history","check_date":"2021-04-06","information":"board","name":"Altstadt Bamberg - Weltkulturerbe","tourism":"information","traffic_sign":"DE:386.3"},"type":"Feature","id":"node/1317492517","geometry":{"type":"Point","coordinates":[10.9729359,49.9509739]}},{"properties":{"@id":1317492532,"@type":"node","board_type":"history","check_date":"2022-10-30","information":"board","name":"Schloß und Park Seehof","tourism":"information","traffic_sign":"DE:386.3"},"type":"Feature","id":"node/1317492532","geometry":{"type":"Point","coordinates":[10.9673972,49.9469266]}},{"properties":{"@id":1371346853,"@type":"node","board_type":"history","check_date":"2024-02-11","information":"board","name":"Wasserschloß MIttwitz","tourism":"information","traffic_sign":"DE:386.3"},"type":"Feature","id":"node/1371346853","geometry":{"type":"Point","coordinates":[11.0364642,50.2481148]}},{"properties":{"@id":1371381656,"@type":"node","board_type":"history","check_date":"2022-03-12","information":"board","name":"Gottesgarten - Vierzehnheiligen - Kloster Banz","tourism":"information","traffic_sign":"DE:386.3"},"type":"Feature","id":"node/1371381656","geometry":{"type":"Point","coordinates":[11.02342,50.1214174]}},{"properties":{"@id":1371381657,"@type":"node","board_type":"history","check_date":"2023-04-07","information":"board","name":"Lichtenfels - Die Deutsche Korbstadt","tourism":"information","traffic_sign":"DE:386.3"},"type":"Feature","id":"node/1371381657","geometry":{"type":"Point","coordinates":[11.0165009,50.1582498]}},{"properties":{"@id":1428643614,"@type":"node","board_type":"history","check_date":"2023-12-26","information":"board","name":"Residenzstadt Celle","tourism":"information","traffic_sign":"DE:386.3"},"type":"Feature","id":"node/1428643614","geometry":{"type":"Point","coordinates":[9.8949768,52.9605157]}},{"properties":{"@id":1428649621,"@type":"node","board_type":"history","check_date":"2022-11-30","information":"board","name":"Goslar und Rammelsberg - Weltkulturerbe","tourism":"information","traffic_sign":"DE:386.3"},"type":"Feature","id":"node/1428649621","geometry":{"type":"Point","coordinates":[10.105255,52.1206142]}},{"properties":{"@id":1428649644,"@type":"node","board_type":"history","check_date":"2022-10-09","information":"board","name":"Schloß Marienburg - Sitz der Welfen","tourism":"information","traffic_sign":"DE:386.3"},"type":"Feature","id":"node/1428649644","geometry":{"type":"Point","coordinates":[9.9336455,52.212671]}},{"properties":{"@id":1428649647,"@type":"node","board_type":"history","check_date":"2022-11-30","information":"board","name":"St. Michaelis und Dom UNESCO-Welterbe in Hildesheim","tourism":"information","traffic_sign":"DE:386.3"},"type":"Feature","id":"node/1428649647","geometry":{"type":"Point","coordinates":[9.9339889,52.210739]}},{"properties":{"@id":1428678502,"@type":"node","board_type":"history","check_date":"2021-08-20","information":"board","name":"Fachwerkstadt Melsungen","tourism":"information","traffic_sign":"DE:386.3"},"type":"Feature","id":"node/1428678502","geometry":{"type":"Point","coordinates":[9.4778695,51.1526745]}},{"properties":{"@id":1428678506,"@type":"node","board_type":"history","check_date":"2022-09-24","information":"board","name":"Hammelburg - Älteste Weinstadt Frankens","tourism":"information","traffic_sign":"DE:386.3"},"type":"Feature","id":"node/1428678506","geometry":{"type":"Point","coordinates":[9.9537358,50.1481827]}},{"properties":{"@id":1428678508,"@type":"node","board_type":"history","information":"board","name":"Historische Altstadt Hann. Münden","tourism":"information","traffic_sign":"DE:386.3"},"type":"Feature","id":"node/1428678508","geometry":{"type":"Point","coordinates":[9.8114411,51.4052735]}},{"properties":{"@id":1428678509,"@type":"node","board_type":"history","check_date":"2021-08-20","information":"board","name":"Homberg (Efze) - Knüll","tourism":"information","traffic_sign":"DE:386.3"},"type":"Feature","id":"node/1428678509","geometry":{"type":"Point","coordinates":[9.4888048,51.0168196]}},{"properties":{"@id":1428678510,"@type":"node","board_type":"history","check_date":"2021-05-10","information":"board","name":"Konrad-Zuse-Museum - Hünfeld im Hessischen Kegelspiel","tourism":"information","traffic_sign":"DE:386.3"},"type":"Feature","id":"node/1428678510","geometry":{"type":"Point","coordinates":[9.604782,50.7591492]}},{"properties":{"@id":1428678515,"@type":"node","board_type":"history","check_date":"2022-11-30","information":"board","name":"Schloß Berlepsch - Tor zum Mittelalter","tourism":"information","traffic_sign":"DE:386.3"},"type":"Feature","id":"node/1428678515","geometry":{"type":"Point","coordinates":[9.8450311,51.4275348]}},{"properties":{"@id":1448610101,"@type":"node","board_type":"history","check_date":"2022-11-12","information":"board","name":"Römische Terra-Sigillata - Rheinzabern","tourism":"information","traffic_sign":"DE:386.3"},"type":"Feature","id":"node/1448610101","geometry":{"type":"Point","coordinates":[8.1947836,49.0987684]}},{"properties":{"@id":1448612513,"@type":"node","board_type":"history","direction":"295","information":"board","name":"Hohenloher Freilandmuseum","tourism":"information","traffic_sign":"DE:386.3"},"type":"Feature","id":"node/1448612513","geometry":{"type":"Point","coordinates":[9.7147851,49.1928638]}},{"properties":{"@id":1448612514,"@type":"node","board_type":"history","check_date":"2021-09-29","information":"board","name":"Kunst und Natur - Kirchberg/Jagst","tourism":"information","traffic_sign":"DE:386.3"},"type":"Feature","id":"node/1448612514","geometry":{"type":"Point","coordinates":[9.9140518,49.1774622]}},{"properties":{"@id":1448612515,"@type":"node","board_type":"history","direction":"262","information":"board","name":"Schloß Langenburg","tourism":"information","traffic_sign":"DE:386.3"},"type":"Feature","id":"node/1448612515","geometry":{"type":"Point","coordinates":[9.8329042,49.1734421]}},{"properties":{"@id":1448612516,"@type":"node","board_type":"history","check_date":"2021-09-29","information":"board","name":"Schloß Neuenstein","tourism":"information","traffic_sign":"DE:386.3"},"type":"Feature","id":"node/1448612516","geometry":{"type":"Point","coordinates":[9.550665,49.2145301]}},{"properties":{"@id":1501766380,"@type":"node","board_type":"history","information":"board","name":"Schambachtalbahn-Radweg","tourism":"information"},"type":"Feature","id":"node/1501766380","geometry":{"type":"Point","coordinates":[11.4669773,48.8073316]}},{"properties":{"@id":1513066658,"@type":"node","board_type":"history","check_date":"2022-07-01","information":"board","name":"Freilandmuseum Therme - Bad Windsheim","tourism":"information","traffic_sign":"DE:386.3"},"type":"Feature","id":"node/1513066658","geometry":{"type":"Point","coordinates":[10.2339011,49.4659367]}},{"properties":{"@id":1574635378,"@type":"node","board_type":"history","description":"Unterrichtungstafel Schloss Lembeck, A 31","information":"board","name":"Schloss Lembeck","tourism":"information"},"type":"Feature","id":"node/1574635378","geometry":{"type":"Point","coordinates":[6.966111,51.7772829]}},{"properties":{"@id":1582768860,"@type":"node","board_type":"history","description":"Unterichtungstafel, A 42","information":"board","name":"Industriekultur Weltkulturerbe Zeche Zollverein","tourism":"information"},"type":"Feature","id":"node/1582768860","geometry":{"type":"Point","coordinates":[7.0861714,51.5328856]}},{"properties":{"@id":1733719245,"@type":"node","board_type":"history","check_date":"2023-05-29","information":"board","name":"Romantisches Königsberg i. Bay.","tourism":"information","traffic_sign":"DE:386.3"},"type":"Feature","id":"node/1733719245","geometry":{"type":"Point","coordinates":[10.4789777,50.0058927]}},{"properties":{"@id":1851774263,"@type":"node","board_type":"history","check_date":"2023-07-03","information":"board","name":"Plassenburg","tourism":"information","traffic_sign":"DE:386.3"},"type":"Feature","id":"node/1851774263","geometry":{"type":"Point","coordinates":[11.4539601,50.0271365]}},{"properties":{"@id":1851806301,"@type":"node","board_type":"history","check_date":"2022-08-21","information":"board","name":"Festspielstadt Wunsiedel","tourism":"information","traffic_sign":"DE:386.3"},"type":"Feature","id":"node/1851806301","geometry":{"type":"Point","coordinates":[12.1193435,50.0248059]}},{"properties":{"@id":1851806302,"@type":"node","board_type":"history","check_date":"2022-08-21","information":"board","name":"Luisenburg Felsenlabyrinth","tourism":"information","traffic_sign":"DE:386.3"},"type":"Feature","id":"node/1851806302","geometry":{"type":"Point","coordinates":[12.114535,50.0310544]}},{"properties":{"@id":1852430685,"@type":"node","board_type":"history","check_date":"2022-08-21","information":"board","name":"Rehau - Modellstadt Bayerns","tourism":"information","traffic_sign":"DE:386.3"},"type":"Feature","id":"node/1852430685","geometry":{"type":"Point","coordinates":[12.0727289,50.2261725]}},{"properties":{"@id":1852430686,"@type":"node","board_type":"history","check_date":"2022-08-21","information":"board","name":"Schönwald - Natur und Porzellan","tourism":"information","traffic_sign":"DE:386.3"},"type":"Feature","id":"node/1852430686","geometry":{"type":"Point","coordinates":[12.106482,50.2020224]}},{"properties":{"@id":1882821150,"@type":"node","board_type":"history","check_date":"2022-08-06","information":"board","name":"Hammelburg - Älteste Weinstadt Frankens","tourism":"information","traffic_sign":"DE:386.3"},"type":"Feature","id":"node/1882821150","geometry":{"type":"Point","coordinates":[9.9735046,50.1021506]}},{"properties":{"@id":1883367930,"@type":"node","board_type":"history","check_date":"2021-08-20","information":"board","name":"Barockstadt Fulda","tourism":"information","traffic_sign":"DE:386.3"},"type":"Feature","id":"node/1883367930","geometry":{"type":"Point","coordinates":[9.6806146,50.6063113]}},{"properties":{"@id":1905753957,"@type":"node","board_type":"history","check_date":"2023-08-06","information":"board","name":"Crailsheim - Türme an der Jagst","tourism":"information","traffic_sign":"DE:386.3"},"type":"Feature","id":"node/1905753957","geometry":{"type":"Point","coordinates":[10.0155113,49.173073]}},{"properties":{"@id":1905753958,"@type":"node","board_type":"history","check_date":"2021-12-30","information":"board","name":"Feststpielstadt Feuchtwangen","tourism":"information","traffic_sign":"DE:386.3"},"type":"Feature","id":"node/1905753958","geometry":{"type":"Point","coordinates":[10.2580911,49.2178505]}},{"properties":{"@id":1905753959,"@type":"node","board_type":"history","check_date":"2021-09-29","information":"board","name":"Forchtenberg - Geburtsstadt von Sophie Scholl","tourism":"information","traffic_sign":"DE:386.3"},"type":"Feature","id":"node/1905753959","geometry":{"type":"Point","coordinates":[9.5578951,49.2163752]}},{"properties":{"@id":1941039913,"@type":"node","board_type":"history","check_date":"2022-08-21","information":"board","name":"Oberpfälzer Freilandmuseum","tourism":"information","traffic_sign":"DE:386.3"},"type":"Feature","id":"node/1941039913","geometry":{"type":"Point","coordinates":[12.175302,49.4295327]}},{"properties":{"@id":1956114398,"@type":"node","board_type":"history","check_date":"2024-04-07","information":"board","name":"Göltzschtalbrücke","tourism":"information","traffic_sign":"DE:386.3"},"type":"Feature","id":"node/1956114398","geometry":{"type":"Point","coordinates":[12.2402869,50.5258289]}},{"properties":{"@id":1958917148,"@type":"node","board_type":"history","information":"board","name":"Aue Friedenskirche","tourism":"information","traffic_sign":"DE:386.3"},"type":"Feature","id":"node/1958917148","geometry":{"type":"Point","coordinates":[12.653524,50.6869701]}},{"properties":{"@id":1976888794,"@type":"node","board_type":"history","information":"board","name":"Geschichte der Friedrich-Zeche","tourism":"information"},"type":"Feature","id":"node/1976888794","geometry":{"type":"Point","coordinates":[12.0487039,49.0021212]}},{"properties":{"@id":1979032726,"@type":"node","board_type":"history","information":"board","name":"Hambacher Schloß","tourism":"information","traffic_sign":"DE:386.3"},"type":"Feature","id":"node/1979032726","geometry":{"type":"Point","coordinates":[8.193021,49.3500188]}},{"properties":{"@id":2251750267,"@type":"node","board_type":"history","direction":"51","information":"board","name":"Hohenloher Ebene","tourism":"information","traffic_sign":"DE:386.3"},"type":"Feature","id":"node/2251750267","geometry":{"type":"Point","coordinates":[10.1231039,49.1969639]}},{"properties":{"@id":2297243102,"@type":"node","board_type":"history","check_date":"2023-04-10","information":"board","name":"Gottesgarten - Kloster Banz - Vierzehnheiligen","tourism":"information","traffic_sign":"DE:386.3"},"type":"Feature","id":"node/2297243102","geometry":{"type":"Point","coordinates":[10.9896692,50.0703084]}},{"properties":{"@id":2297258019,"@type":"node","board_type":"history","check_date":"2023-04-07","information":"board","name":"Lichtenfels - Die Deutsche Korbstadt","tourism":"information","traffic_sign":"DE:386.3"},"type":"Feature","id":"node/2297258019","geometry":{"type":"Point","coordinates":[11.0162924,50.1125452]}},{"properties":{"@id":2297258110,"@type":"node","board_type":"history","check_date":"2023-04-07","information":"board","name":"Seßlach - Historische Altstadt","tourism":"information","traffic_sign":"DE:386.3"},"type":"Feature","id":"node/2297258110","geometry":{"type":"Point","coordinates":[11.0277784,50.1510079]}},{"properties":{"@id":2297832295,"@type":"node","board_type":"history","check_date":"2024-02-11","information":"board","name":"Ehemalige Innerdeutsche Grenze 1945-1990","tourism":"information","traffic_sign":"DE:386.3"},"type":"Feature","id":"node/2297832295","geometry":{"type":"Point","coordinates":[10.921279,50.3716245]}},{"properties":{"@id":2330202769,"@type":"node","board_type":"history","check_date":"2023-03-26","direction":"138","information":"board","name":"Fächerstadt Karlsruhe","tourism":"information","traffic_sign":"DE:386.3"},"type":"Feature","id":"node/2330202769","geometry":{"type":"Point","coordinates":[8.4787733,48.9588808]}},{"properties":{"@id":2330202770,"@type":"node","board_type":"history","check_date":"2024-03-24","direction":"52","information":"board","name":"Schloss Ettlingen","tourism":"information","traffic_sign":"DE:386.3"},"type":"Feature","id":"node/2330202770","geometry":{"type":"Point","coordinates":[8.4310828,48.970254]}},{"properties":{"@id":2387606260,"@type":"node","board_type":"history","check_date":"2022-12-27","information":"board","name":"Weltkulturerbe - Römischer Limes","source":"survey","tourism":"information","traffic_sign":"DE:386.3"},"type":"Feature","id":"node/2387606260","geometry":{"type":"Point","coordinates":[11.4413055,48.9453776]}},{"properties":{"@id":2387627086,"@type":"node","board_type":"history","information":"board","mapillary":"301845021335751","name":"Weltkulturerbe Römischer Limes","source":"survey","tourism":"information","traffic_sign":"DE:386.3"},"type":"Feature","id":"node/2387627086","geometry":{"type":"Point","coordinates":[11.4669345,48.8651598]}},{"properties":{"@id":2412889347,"@type":"node","board_type":"history","check_date":"2021-10-24","information":"board","name":"Treenetal","tourism":"information","traffic_sign":"DE:386.3"},"type":"Feature","id":"node/2412889347","geometry":{"type":"Point","coordinates":[9.4168567,54.6826184]}},{"properties":{"@id":2412924088,"@type":"node","board_type":"history","check_date":"2021-01-03","information":"board","name":"UNESO-Welterbe: Haithabu und Danewerk","name:da":"Hedeby og Danevirke","tourism":"information","traffic_sign":"DE:386.3"},"type":"Feature","id":"node/2412924088","geometry":{"type":"Point","coordinates":[9.5173707,54.4958722]}},{"properties":{"@id":2412924125,"@type":"node","board_type":"history","check_date":"2021-12-04","information":"board","name":"Schloß Gottorf - Schleswig-Holsteinisches Landesmuseum","tourism":"information","traffic_sign":"DE:386.3"},"type":"Feature","id":"node/2412924125","geometry":{"type":"Point","coordinates":[9.4716782,54.5389793]}},{"properties":{"@id":2413045539,"@type":"node","board_type":"history","check_date":"2024-04-27","information":"board","name":"Rendsburg Eisenbahnhochbrücke","tourism":"information","traffic_sign":"DE:386.3"},"type":"Feature","id":"node/2413045539","geometry":{"type":"Point","coordinates":[9.6806924,54.3578156]}},{"properties":{"@id":2414177734,"@type":"node","board_type":"history","check_date":"2021-10-24","information":"board","name":"Klosterinsel Bordesholm","tourism":"information","traffic_sign":"DE:386.3"},"type":"Feature","id":"node/2414177734","geometry":{"type":"Point","coordinates":[9.9234547,54.1903265]}},{"properties":{"@id":2414193091,"@type":"node","board_type":"history","check_date":"2021-10-14","information":"board","name":"Museum Tuch + Technik Neumünster","tourism":"information","traffic_sign":"DE:386.3"},"type":"Feature","id":"node/2414193091","geometry":{"type":"Point","coordinates":[9.9408935,54.1064449]}},{"properties":{"@id":2431170999,"@type":"node","board_type":"history","check_date":"2022-05-25","information":"board","name":"Schloß Aschbach - Museen Bad Bocklet","tourism":"information","traffic_sign":"DE:386.3"},"type":"Feature","id":"node/2431170999","geometry":{"type":"Point","coordinates":[10.2197815,50.2287952]}},{"properties":{"@id":2447879333,"@type":"node","board_type":"history","check_date":"2021-12-17","information":"board","name":"Hardenberg Burgruine, Burg Plesse","source":"survey","tourism":"information","traffic_sign":"DE:386"},"type":"Feature","id":"node/2447879333","geometry":{"type":"Point","coordinates":[9.9164698,51.6621605]}},{"properties":{"@id":2447919643,"@type":"node","board_type":"history","check_date":"2022-07-24","information":"board","name":"Kloser Lamspringe","source":"survey","tourism":"information","traffic_sign":"DE:386"},"type":"Feature","id":"node/2447919643","geometry":{"type":"Point","coordinates":[10.1343308,51.9088879]}},{"properties":{"@id":2459160885,"@type":"node","board_type":"history","check_date":"2023-11-25","information":"board","name":"Veitsberg - Markt Ebensfeld","tourism":"information","traffic_sign":"DE:386.3"},"type":"Feature","id":"node/2459160885","geometry":{"type":"Point","coordinates":[10.9587709,50.0413167]}},{"properties":{"@id":2460605340,"@type":"node","board_type":"history","information":"board","name":"Kalkofenrundweg - Station 5\"Napoleonstele\"","tourism":"information"},"type":"Feature","id":"node/2460605340","geometry":{"type":"Point","coordinates":[13.8750776,50.8804137]}},{"properties":{"@id":2503446628,"@type":"node","board_type":"history","check_date":"2022-09-05","information":"board","name":"Mathildenhöhe Darmstadt - Zentrum des Jugendstils","tourism":"information","traffic_sign":"DE:386.3"},"type":"Feature","id":"node/2503446628","geometry":{"type":"Point","coordinates":[8.5886848,49.8275857]}},{"properties":{"@id":2503446629,"@type":"node","board_type":"history","check_date":"2022-02-06","information":"board","name":"Schöfferdenkmal Gernsheim am Rhein","tourism":"information","traffic_sign":"DE:386.3"},"type":"Feature","id":"node/2503446629","geometry":{"type":"Point","coordinates":[8.5440139,49.719006]}},{"properties":{"@id":2503470741,"@type":"node","board_type":"history","check_date":"2021-09-23","information":"board","name":"Barockschloß Mannheim","tourism":"information","traffic_sign":"DE:386.3"},"type":"Feature","id":"node/2503470741","geometry":{"type":"Point","coordinates":[8.4873652,49.5546162]}},{"properties":{"@id":2503470745,"@type":"node","board_type":"history","check_date":"2024-07-28","information":"board","name":"Geburtshaus Georg Büchner - Riedstadt","tourism":"information","traffic_sign":"DE:386.3"},"type":"Feature","id":"node/2503470745","geometry":{"type":"Point","coordinates":[8.5927807,49.8349438]}},{"properties":{"@id":2503470748,"@type":"node","board_type":"history","check_date":"2021-11-19","information":"board","name":"Schöfferdenkmal Gernsheim am Rhein","tourism":"information","traffic_sign":"DE:386.3"},"type":"Feature","id":"node/2503470748","geometry":{"type":"Point","coordinates":[8.5477808,49.7724448]}},{"properties":{"@id":2521955790,"@type":"node","board_type":"history","check_date":"2024-01-22","information":"board","name":"Talbrücke Unterrieden","note":"Autobahn-Tourism-Info","source":"survey;Bing","tourism":"information","traffic_sign":"DE:386.3"},"type":"Feature","id":"node/2521955790","geometry":{"type":"Point","coordinates":[11.3850923,49.4000249]}},{"properties":{"@id":2522911136,"@type":"node","board_type":"history","check_date":"2022-10-09","information":"board","name":"Bad Gandersheim","tourism":"information","traffic_sign":"DE:386.3"},"type":"Feature","id":"node/2522911136","geometry":{"type":"Point","coordinates":[10.0233747,51.7675113]}},{"properties":{"@id":2522915714,"@type":"node","board_type":"history","check_date":"2022-03-03","information":"board","name":"Einbeck","source":"survey;extrapolated","tourism":"information","traffic_sign":"DE:386.3"},"type":"Feature","id":"node/2522915714","geometry":{"type":"Point","coordinates":[9.9476047,51.721901]}},{"properties":{"@id":2522930786,"@type":"node","board_type":"history","information":"board","name":"Schloß Marienburg - Sitz der Welfen","source":"survey;Bing","tourism":"information","traffic_sign":"DE:386.3"},"type":"Feature","id":"node/2522930786","geometry":{"type":"Point","coordinates":[10.0025122,52.1412927]}},{"properties":{"@id":2522936037,"@type":"node","board_type":"history","information":"board","name":"St. Michaelis und Dom UNESCO-Welterbe in Hildesheim","source":"survey;Bing","tourism":"information","traffic_sign":"DE:386.3"},"type":"Feature","id":"node/2522936037","geometry":{"type":"Point","coordinates":[10.0271543,52.1342703]}},{"properties":{"@id":2601109179,"@type":"node","board_type":"history","check_date":"2022-09-04","information":"board","name":"Klosterdorf Speinshart","tourism":"information","traffic_sign":"DE:386.3"},"type":"Feature","id":"node/2601109179","geometry":{"type":"Point","coordinates":[12.1534739,49.7573093]}},{"properties":{"@id":2601126232,"@type":"node","board_type":"history","check_date":"2023-09-25","information":"board","name":"Historische Altstadt Weiden","tourism":"information","traffic_sign":"DE:386.3"},"type":"Feature","id":"node/2601126232","geometry":{"type":"Point","coordinates":[12.1449432,49.7128553]}},{"properties":{"@id":2601144520,"@type":"node","board_type":"history","check_date":"2023-09-25","information":"board","name":"Burg Wernberg","tourism":"information","traffic_sign":"DE:386.3"},"type":"Feature","id":"node/2601144520","geometry":{"type":"Point","coordinates":[12.1214555,49.5651801]}},{"properties":{"@id":2634225805,"@type":"node","board_type":"history","check_date":"2022-10-07","information":"board","name":"Historisches Baunach","tourism":"information","traffic_sign":"DE:386.3"},"type":"Feature","id":"node/2634225805","geometry":{"type":"Point","coordinates":[10.9104164,49.9974463]}},{"properties":{"@id":2682428923,"@type":"node","board_type":"history","check_date":"2020-12-30","information":"board","name":"Talbrücke Lanzendorf","tourism":"information","traffic_sign":"DE:386.3"},"type":"Feature","id":"node/2682428923","geometry":{"type":"Point","coordinates":[11.6109273,50.0380019]}},{"properties":{"@id":2713266024,"@type":"node","board_type":"history","direction":"SE","information":"board","name":"Schloß Saarbrücken / Chateau de Sarrebruck","tourism":"information","traffic_sign":"DE:386.3"},"type":"Feature","id":"node/2713266024","geometry":{"type":"Point","coordinates":[7.0141762,49.2216725]}},{"properties":{"@id":2724378298,"@type":"node","board_type":"history","check_date":"2025-01-06","information":"board","name":"Kloster Rosenthal","tourism":"information","traffic_sign":"DE:386.3"},"type":"Feature","id":"node/2724378298","geometry":{"type":"Point","coordinates":[8.0306291,49.5165655]}},{"properties":{"@id":2724395717,"@type":"node","board_type":"history","check_date":"2022-12-30","information":"board","name":"Dom zu Speyer","tourism":"information","traffic_sign":"DE:386.3"},"type":"Feature","id":"node/2724395717","geometry":{"type":"Point","coordinates":[8.392726,49.3542757]}},{"properties":{"@id":2749131289,"@type":"node","board_type":"history","check_date":"2023-06-04","information":"board","name":"Leutershausen - Deutsches Flugpionier-Museum","tourism":"information","traffic_sign":"DE:386.3"},"type":"Feature","id":"node/2749131289","geometry":{"type":"Point","coordinates":[10.396712,49.2477721]}},{"properties":{"@id":2797993692,"@type":"node","board_type":"history","check_date":"2023-04-07","information":"board","name":"Seßlach - Historische Altstadt","tourism":"information","traffic_sign":"DE:386.3"},"type":"Feature","id":"node/2797993692","geometry":{"type":"Point","coordinates":[11.0260137,50.183124]}},{"properties":{"@id":2798052354,"@type":"node","board_type":"history","check_date":"2023-11-16","information":"board","name":"Veitsberg - Markt Ebensfeld","tourism":"information","traffic_sign":"DE:386.3"},"type":"Feature","id":"node/2798052354","geometry":{"type":"Point","coordinates":[10.996396,50.0769106]}},{"properties":{"@id":2829081776,"@type":"node","board_type":"history","check_date":"2024-02-11","information":"board","name":"Ahorn - Schlosspark Hohenstein","tourism":"information","traffic_sign":"DE:386.3"},"type":"Feature","id":"node/2829081776","geometry":{"type":"Point","coordinates":[11.0424067,50.2024541]}},{"properties":{"@id":2829164722,"@type":"node","board_type":"history","check_date":"2024-02-11","information":"board","name":"Ehemalige innerdeutsche Grenze 1945-1990","tourism":"information","traffic_sign":"DE:386.3"},"type":"Feature","id":"node/2829164722","geometry":{"type":"Point","coordinates":[10.9166617,50.3882797]}},{"properties":{"@id":2829201793,"@type":"node","board_type":"history","check_date":"2022-10-06","information":"board","name":"Rödental - Schloss Rosenau/Glasmuseum","tourism":"information","traffic_sign":"DE:386.3"},"type":"Feature","id":"node/2829201793","geometry":{"type":"Point","coordinates":[10.9787506,50.291116]}},{"properties":{"@id":2838622280,"@type":"node","board_type":"history","description":"Ehemalige Gasthäuser","information":"board","name":"Ehemalige Gasthäuser","operator":"Eco Pfad Kulturgeschichte Hertingshausen und Kirchbauna","tourism":"information","website":"http://www.eco-pfade.de/PDF/Tafel-Kirchbauna-Station-7.pdf"},"type":"Feature","id":"node/2838622280","geometry":{"type":"Point","coordinates":[9.4302175,51.2403983]}},{"properties":{"@id":2930262599,"@type":"node","board_type":"history","check_date":"2022-09-04","information":"board","name":"Windischeschenbach-Neuhaus Zoigl-Brautradition","tourism":"information","traffic_sign":"DE:386.3"},"type":"Feature","id":"node/2930262599","geometry":{"type":"Point","coordinates":[12.1636504,49.7817378]}},{"properties":{"@id":2930269543,"@type":"node","board_type":"history","check_date":"2023-09-25","information":"board","name":"Egerland Kulturhaus Marktredwitz - metropolregion nürnberg","tourism":"information","traffic_sign":"DE:386.3"},"type":"Feature","id":"node/2930269543","geometry":{"type":"Point","coordinates":[12.1269569,49.9913026]}},{"properties":{"@id":2930269545,"@type":"node","board_type":"history","check_date":"2022-08-21","information":"board","name":"Genussregion Oberfranken Land der Brauereien","tourism":"information","traffic_sign":"DE:386.3"},"type":"Feature","id":"node/2930269545","geometry":{"type":"Point","coordinates":[12.128477,49.9890059]}},{"properties":{"@id":2935668240,"@type":"node","board_type":"history","direction":"270","information":"board","name":"Günzburg Historische Altstadt","tourism":"information","traffic_sign":"DE:386.3"},"type":"Feature","id":"node/2935668240","geometry":{"type":"Point","coordinates":[10.253769,48.4292458]}},{"properties":{"@id":3014919128,"@type":"node","board_type":"history","check_date":"2023-05-21","information":"board","name":"Burg & Schloss Allstedt","tourism":"information"},"type":"Feature","id":"node/3014919128","geometry":{"type":"Point","coordinates":[11.4299813,51.4350579]}},{"properties":{"@id":3023427509,"@type":"node","board_type":"history","information":"board","name":"Motruine","tourism":"information"},"type":"Feature","id":"node/3023427509","geometry":{"type":"Point","coordinates":[5.5148755,50.9872613]}},{"properties":{"@id":3106612598,"@type":"node","board_type":"history","direction":"177","information":"board","name":"Festung Landau","tourism":"information","traffic_sign":"DE:386.3"},"type":"Feature","id":"node/3106612598","geometry":{"type":"Point","coordinates":[8.1485729,49.2003903]}},{"properties":{"@id":3116135961,"@type":"node","board_type":"history","check_date":"2021-07-25","description":"Touristische Unterrichtungstafel","information":"board","name":"Schloss Heidelberg","tourism":"information","traffic_sign":"DE:386.3","visibility":"street"},"type":"Feature","id":"node/3116135961","geometry":{"type":"Point","coordinates":[8.6301685,49.324973]}},{"properties":{"@id":3130111084,"@type":"node","board_type":"history","check_date":"2021-09-19","information":"board","name":"Thermen Bad Schönborn","source":"http://www.mapillary.com/map/im/Fwxa586scZyiAGPf2a1Vjw","tourism":"information","traffic_sign":"DE:386.3"},"type":"Feature","id":"node/3130111084","geometry":{"type":"Point","coordinates":[8.6002247,49.2471893]}},{"properties":{"@id":3145290771,"@type":"node","board_type":"history","check_date":"2021-04-04","direction":"65","information":"board","name":"Wurmlinger Kapelle","tourism":"information","traffic_sign":"DE:386.3"},"type":"Feature","id":"node/3145290771","geometry":{"type":"Point","coordinates":[8.8652742,48.5144699]}},{"properties":{"@id":3145326109,"@type":"node","board_type":"history","direction":"23","information":"board","name":"Schloss Haigerloch","tourism":"information","traffic_sign":"DE:386.3"},"type":"Feature","id":"node/3145326109","geometry":{"type":"Point","coordinates":[8.7277942,48.4142673]}},{"properties":{"@id":3145326110,"@type":"node","board_type":"history","direction":"40","information":"board","name":"Horb am Neckar","tourism":"information","traffic_sign":"DE:386.3"},"type":"Feature","id":"node/3145326110","geometry":{"type":"Point","coordinates":[8.7580636,48.4429]}},{"properties":{"@id":3145335211,"@type":"node","board_type":"history","check_date":"2024-12-08","direction":"32","information":"board","name":"Wasserschloss Sulz-Glatt","tourism":"information","traffic_sign":"DE:386.3"},"type":"Feature","id":"node/3145335211","geometry":{"type":"Point","coordinates":[8.6840474,48.3610507]}},{"properties":{"@id":3145443722,"@type":"node","board_type":"history","direction":"37","information":"board","name":"Rottweil","tourism":"information","traffic_sign":"DE:386.3"},"type":"Feature","id":"node/3145443722","geometry":{"type":"Point","coordinates":[8.6408252,48.2161683]}},{"properties":{"@id":3155306777,"@type":"node","board_type":"history","direction":"199","information":"board","name":"Dreifaltigkeitsberg Spaichingen","tourism":"information","traffic_sign":"DE:386.3"},"type":"Feature","id":"node/3155306777","geometry":{"type":"Point","coordinates":[8.6092435,48.0183336]}},{"properties":{"@id":3155848999,"@type":"node","board_type":"history","check_date":"2021-08-22","information":"board","name":"Rottweil","tourism":"information","traffic_sign":"DE:386.3"},"type":"Feature","id":"node/3155848999","geometry":{"type":"Point","coordinates":[8.5731875,48.1538816]}},{"properties":{"@id":3157942375,"@type":"node","board_type":"history","information":"board","name":"Schloss Schleißheim","tourism":"information","traffic_sign":"DE:386.3"},"type":"Feature","id":"node/3157942375","geometry":{"type":"Point","coordinates":[11.5413875,48.2704934]}},{"properties":{"@id":3158007703,"@type":"node","board_type":"history","check_date":"2022-02-11","information":"board","name":"Audi Museum","tourism":"information","traffic_sign":"DE:386.3"},"type":"Feature","id":"node/3158007703","geometry":{"type":"Point","coordinates":[11.4768973,48.7251115]}},{"properties":{"@id":3158007710,"@type":"node","board_type":"history","check_date":"2022-04-03","information":"board","name":"Haus im Moos - Freilichtmuseum","tourism":"information","traffic_sign":"DE:386.3"},"type":"Feature","id":"node/3158007710","geometry":{"type":"Point","coordinates":[11.4958918,48.6888143]}},{"properties":{"@id":3158020342,"@type":"node","board_type":"history","information":"board","name":"Eichstätt","source":"survey","tourism":"information","traffic_sign":"DE:386.3"},"type":"Feature","id":"node/3158020342","geometry":{"type":"Point","coordinates":[11.4523319,48.9387531]}},{"properties":{"@id":3158020344,"@type":"node","board_type":"history","check_date":"2022-02-11","information":"board","name":"Historische Altstadt Greding","tourism":"information","traffic_sign":"DE:386.3"},"type":"Feature","id":"node/3158020344","geometry":{"type":"Point","coordinates":[11.3603918,49.016215]}},{"properties":{"@id":3158020345,"@type":"node","board_type":"history","check_date":"2022-02-11","information":"board","name":"Historisches Beilngries","tourism":"information","traffic_sign":"DE:386.3"},"type":"Feature","id":"node/3158020345","geometry":{"type":"Point","coordinates":[11.4412898,48.9458342]}},{"properties":{"@id":3192188387,"@type":"node","board_type":"history","direction":"183","information":"board","name":"Wasserschloss Sulz-Glatt","tourism":"information","traffic_sign":"DE:386.3"},"type":"Feature","id":"node/3192188387","geometry":{"type":"Point","coordinates":[8.6467156,48.3314148]}},{"properties":{"@id":3192188388,"@type":"node","board_type":"history","direction":"215","information":"board","name":"Schloss Haigerloch","tourism":"information","traffic_sign":"DE:386.3"},"type":"Feature","id":"node/3192188388","geometry":{"type":"Point","coordinates":[8.684573,48.361053]}},{"properties":{"@id":3192866396,"@type":"node","board_type":"history","direction":"201","information":"board","name":"Horb am Neckar","tourism":"information","traffic_sign":"DE:386.3"},"type":"Feature","id":"node/3192866396","geometry":{"type":"Point","coordinates":[8.7282151,48.4141498]}},{"properties":{"@id":3193923315,"@type":"node","board_type":"history","check_date":"2023-08-12","direction":"214","information":"board","name":"Burgruine Hohennagold","tourism":"information","traffic_sign":"DE:386.3"},"type":"Feature","id":"node/3193923315","geometry":{"type":"Point","coordinates":[8.7799826,48.4600812]}},{"properties":{"@id":3193937356,"@type":"node","board_type":"history","direction":"247","information":"board","name":"Wurmlinger Kapelle","tourism":"information","traffic_sign":"DE:386.3"},"type":"Feature","id":"node/3193937356","geometry":{"type":"Point","coordinates":[8.8170483,48.4852828]}},{"properties":{"@id":3386151713,"@type":"node","board_type":"history","check_date":"2023-05-29","information":"board","name":"Zeiler Hexenturm - Dokumentationszentrum","tourism":"information","traffic_sign":"DE:386.3"},"type":"Feature","id":"node/3386151713","geometry":{"type":"Point","coordinates":[10.4775783,50.0055362]}},{"properties":{"@id":3428196705,"@type":"node","board_type":"history","check_date":"2022-10-04","information":"board","name":"Madenburg Eschbach","tourism":"information","traffic_sign":"DE:386.3"},"type":"Feature","id":"node/3428196705","geometry":{"type":"Point","coordinates":[8.1727016,49.1251513]}},{"properties":{"@id":3483358168,"@type":"node","board_type":"history","check_date":"2023-06-14","direction":"29","information":"board","name":"Stuttgart - Porsche-Museum/Mercedes-Museum","tourism":"information","traffic_sign":"DE:386.3"},"type":"Feature","id":"node/3483358168","geometry":{"type":"Point","coordinates":[9.1401311,48.8770871]}},{"properties":{"@id":3499518773,"@type":"node","board_type":"history","check_date":"2021-07-27","information":"board","name":"Barockschloss Mannheim","source":"http://www.mapillary.com/map/im/2M1PcMa8BsgAalqhRA1j1g","tourism":"information","traffic_sign":"DE:386.3"},"type":"Feature","id":"node/3499518773","geometry":{"type":"Point","coordinates":[8.5463499,49.4834577]}},{"properties":{"@id":3530915558,"@type":"node","board_type":"history","check_date":"2021-09-18","information":"board","name":"Schloss Neuenbürg","tourism":"information"},"type":"Feature","id":"node/3530915558","geometry":{"type":"Point","coordinates":[8.6912294,48.9095189]}},{"properties":{"@id":3593377705,"@type":"node","board_type":"history","check_date":"2021-10-13","description":"Touristische Unterrichtungstafel","information":"board","name":"Römerstadt Ladenburg","source":"http://www.mapillary.com/map/im/jRNXGOTsYYDq28Mj0oNsog","tourism":"information","traffic_sign":"DE:386.3","visibility":"street"},"type":"Feature","id":"node/3593377705","geometry":{"type":"Point","coordinates":[8.6454548,49.4633613]}},{"properties":{"@id":3696438658,"@type":"node","board_type":"history","check_date":"2022-08-21","information":"board","name":"Historisches Nabburg","tourism":"information","traffic_sign":"DE:386.3"},"type":"Feature","id":"node/3696438658","geometry":{"type":"Point","coordinates":[12.1686294,49.4207129]}},{"properties":{"@id":3721182325,"@type":"node","board_type":"history","information":"board","name":"Grubenfeld Fröhlicher Sonnenblick Erbstolln Huthaus","tourism":"information"},"type":"Feature","id":"node/3721182325","geometry":{"type":"Point","coordinates":[13.3170507,51.0383367]}},{"properties":{"@id":3721418525,"@type":"node","board_type":"history","check_date":"2023-12-30","information":"board","name":"Grubenfeld Romanus Erbstolln, Wolfstolln","tourism":"information"},"type":"Feature","id":"node/3721418525","geometry":{"type":"Point","coordinates":[13.3156937,51.0363874]}},{"properties":{"@id":3722113718,"@type":"node","board_type":"history","description":"Stupfericher Kulturwanderpfad","information":"board","name":"Waldsaum/Waldrand","ref":"13","tourism":"information"},"type":"Feature","id":"node/3722113718","geometry":{"type":"Point","coordinates":[8.5003881,48.9441899]}},{"properties":{"@id":3754738028,"@type":"node","board_type":"history","check_date":"2021-04-07","information":"board","name":"Treidelstein","tourism":"information"},"type":"Feature","id":"node/3754738028","geometry":{"type":"Point","coordinates":[11.0344571,49.6561504]}},{"properties":{"@id":3756854708,"@type":"node","board_type":"history","direction":"200","information":"board","name":"Porzellanikon Selb - Die Museen","tourism":"information","traffic_sign":"DE:386.3"},"type":"Feature","id":"node/3756854708","geometry":{"type":"Point","coordinates":[12.1082002,50.1714418]}},{"properties":{"@id":3758352185,"@type":"node","board_type":"history","check_date":"2022-01-21","information":"board","name":"Berching Historische Gluck-Stadt","tourism":"information","traffic_sign":"DE:386.3"},"type":"Feature","id":"node/3758352185","geometry":{"type":"Point","coordinates":[11.2489001,49.1898882]}},{"properties":{"@id":3758353111,"@type":"node","board_type":"history","check_date":"2022-12-27","information":"board","name":"Neuburg - Renaisance an der Donau / Metropolregion München","source":"survey","tourism":"information","traffic_sign":"DE:386.3"},"type":"Feature","id":"node/3758353111","geometry":{"type":"Point","coordinates":[11.4698641,48.7335413]}},{"properties":{"@id":3758358767,"@type":"node","board_type":"history","check_date":"2022-02-11","direction":"25","information":"board","name":"Ingolstadt - Historische Altstadt / Metropolregion München","source":"survey","subject:wikidata":"Q3004","subject:wikipedia":"de:Ingolstadt","tourism":"information","traffic_sign":"DE:386.3"},"type":"Feature","id":"node/3758358767","geometry":{"type":"Point","coordinates":[11.4628387,48.7963558]}},{"properties":{"@id":3758359950,"@type":"node","board_type":"history","check_date":"2022-12-27","direction":"25","information":"board","name":"Audi Forum museum mobile","source":"survey","subject:wikidata":"Q265338","subject:wikipedia":"de:Audi museum mobile","tourism":"information","traffic_sign":"DE:386.3"},"type":"Feature","id":"node/3758359950","geometry":{"type":"Point","coordinates":[11.4642483,48.8004588]}},{"properties":{"@id":3758360096,"@type":"node","board_type":"history","check_date":"2022-03-26","information":"board","name":"Barockkirche Fürstenfeld","tourism":"information","traffic_sign":"DE:386.3"},"type":"Feature","id":"node/3758360096","geometry":{"type":"Point","coordinates":[11.3791356,48.2155741]}},{"properties":{"@id":3758360125,"@type":"node","board_type":"history","check_date":"2022-02-11","information":"board","name":"Kelten Römer Museum Manching","source":"survey","tourism":"information","traffic_sign":"DE:386.3"},"type":"Feature","id":"node/3758360125","geometry":{"type":"Point","coordinates":[11.4714429,48.7314832]}},{"properties":{"@id":3758360246,"@type":"node","board_type":"history","check_date":"2022-04-03","information":"board","name":"Freising - Domberg und Weihenstefan","source":"survey","tourism":"information","traffic_sign":"DE:386.3"},"type":"Feature","id":"node/3758360246","geometry":{"type":"Point","coordinates":[11.5896892,48.4489556]}},{"properties":{"@id":3762432249,"@type":"node","board_type":"history","check_date":"2021-10-24","information":"board","name":"Jüdisches Museum Rendsburg","tourism":"information"},"type":"Feature","id":"node/3762432249","geometry":{"type":"Point","coordinates":[9.7936843,54.26354]}},{"properties":{"@id":3785503642,"@type":"node","board_type":"history","check_date":"2020-12-30","information":"board","name":"Oberfränkisches Bauernhofmuseum","tourism":"information","traffic_sign":"DE:386.3"},"type":"Feature","id":"node/3785503642","geometry":{"type":"Point","coordinates":[11.7606915,50.1857243]}},{"properties":{"@id":3785508417,"@type":"node","board_type":"history","check_date":"2023-03-17","information":"board","name":"Weißenstadt - Roggenkultur & Kunst - Oberfranken","tourism":"information","traffic_sign":"DE:386.3"},"type":"Feature","id":"node/3785508417","geometry":{"type":"Point","coordinates":[11.7289909,50.1209767]}},{"properties":{"@id":3790254473,"@type":"node","board_type":"history","check_date":"2022-08-21","information":"board","name":"Schönwald Natur und Porzellan","tourism":"information","traffic_sign":"DE:386.3"},"type":"Feature","id":"node/3790254473","geometry":{"type":"Point","coordinates":[12.0723387,50.2259449]}},{"properties":{"@id":3795992452,"@type":"node","board_type":"history","check_date":"2022-08-21","information":"board","name":"Selb - Stadt des Porzellans","tourism":"information","traffic_sign":"DE:386.3"},"type":"Feature","id":"node/3795992452","geometry":{"type":"Point","coordinates":[12.1040648,50.200593]}},{"properties":{"@id":3796160532,"@type":"node","board_type":"history","check_date":"2023-09-25","information":"board","name":"Porzellanikon Selb Die Museen - Oberfranken","tourism":"information","traffic_sign":"DE:386.3"},"type":"Feature","id":"node/3796160532","geometry":{"type":"Point","coordinates":[12.1007721,50.1970171]}},{"properties":{"@id":3796168092,"@type":"node","board_type":"history","check_date":"2022-08-21","information":"board","name":"Burgruine Thierstein","tourism":"information","traffic_sign":"DE:386.3"},"type":"Feature","id":"node/3796168092","geometry":{"type":"Point","coordinates":[12.0945053,50.1208213]}},{"properties":{"@id":3801838707,"@type":"node","board_type":"history","check_date":"2021-12-05","information":"board","name":"Heidenschanze","tourism":"information"},"type":"Feature","id":"node/3801838707","geometry":{"type":"Point","coordinates":[13.6943785,51.0175802]}},{"properties":{"@id":3804201783,"@type":"node","board_type":"history","check_date":"2022-08-21","information":"board","name":"Rehau - Modellstadt Bayerns","tourism":"information","traffic_sign":"DE:386.3"},"type":"Feature","id":"node/3804201783","geometry":{"type":"Point","coordinates":[12.0217084,50.2848453]}},{"properties":{"@id":3812787032,"@type":"node","board_type":"history","check_date":"2022-05-20","information":"board","name":"Festspielstadt Altdorf - Historische Universität - Metropolregion Nürnberg","tourism":"information","traffic_sign":"DE:386.3"},"type":"Feature","id":"node/3812787032","geometry":{"type":"Point","coordinates":[11.3818882,49.3751888]}},{"properties":{"@id":3812806764,"@type":"node","board_type":"history","information":"board","name":"Metropolregion Nürnberg","tourism":"information","traffic_sign":"DE:386.3"},"type":"Feature","id":"node/3812806764","geometry":{"type":"Point","coordinates":[11.3700008,49.3775589]}},{"properties":{"@id":3851787839,"@type":"node","board_type":"history","direction":"170","information":"board","name":"Schloß Auerbach","tourism":"information","traffic_sign":"DE:386.3"},"type":"Feature","id":"node/3851787839","geometry":{"type":"Point","coordinates":[8.600083,49.7049289]}},{"properties":{"@id":3919936487,"@type":"node","board_type":"history","check_date":"2022-12-02","information":"board","name":"Balthasar-Neumann-Schlossanlage Werneck","tourism":"information","traffic_sign":"DE:386.3"},"type":"Feature","id":"node/3919936487","geometry":{"type":"Point","coordinates":[10.0369629,49.9747395]}},{"properties":{"@id":3981202468,"@type":"node","board_type":"history","check_date":"2023-08-26","information":"board","name":"Bauland - Heimat des Grünkern","tourism":"information","traffic_sign":"DE:386.3"},"type":"Feature","id":"node/3981202468","geometry":{"type":"Point","coordinates":[9.6100145,49.5548049]}},{"properties":{"@id":4018370897,"@type":"node","board_type":"history","check_date":"2021-11-19","information":"board","name":"Burg Altena","tourism":"information","traffic_sign":"DE:386.3"},"type":"Feature","id":"node/4018370897","geometry":{"type":"Point","coordinates":[7.5897837,51.2791526]}},{"properties":{"@id":4018641442,"@type":"node","board_type":"history","check_date":"2021-11-11","information":"board","name":"Historischer Stadtkern Siegen","tourism":"information","traffic_sign":"DE:386.3"},"type":"Feature","id":"node/4018641442","geometry":{"type":"Point","coordinates":[7.9611525,50.8733618]}},{"properties":{"@id":4018704099,"@type":"node","board_type":"history","check_date":"2022-03-14","information":"board","name":"Oranierstadt Dillenburg","tourism":"information","traffic_sign":"DE:386.3"},"type":"Feature","id":"node/4018704099","geometry":{"type":"Point","coordinates":[8.2215663,50.7470251]}},{"properties":{"@id":4018765089,"@type":"node","board_type":"history","information":"board","name":"Burg Münzenberg","tourism":"information","traffic_sign":"DE:386.3"},"type":"Feature","id":"node/4018765089","geometry":{"type":"Point","coordinates":[8.7357637,50.4725358]}},{"properties":{"@id":4018778011,"@type":"node","board_type":"history","check_date":"2021-07-04","information":"board","name":"Keltenwelt am Glauberg","tourism":"information","traffic_sign":"DE:386.3"},"type":"Feature","id":"node/4018778011","geometry":{"type":"Point","coordinates":[8.9402121,50.3162215]}},{"properties":{"@id":4019105283,"@type":"node","board_type":"history","check_date":"2021-01-02","information":"board","name":"Burg Alzenau","tourism":"information","traffic_sign":"DE:386.3"},"type":"Feature","id":"node/4019105283","geometry":{"type":"Point","coordinates":[9.003496,50.1065434]}},{"properties":{"@id":4112341499,"@type":"node","board_type":"history","check_date":"2022-04-03","information":"board","name":"Kloster Scheyern","tourism":"information"},"type":"Feature","id":"node/4112341499","geometry":{"type":"Point","coordinates":[11.5893187,48.5288999]}},{"properties":{"@id":4112347689,"@type":"node","board_type":"history","information":"board","name":"Spielzeugdorf Seiffen","tourism":"information"},"type":"Feature","id":"node/4112347689","geometry":{"type":"Point","coordinates":[13.2294799,51.0051066]}},{"properties":{"@id":4112348590,"@type":"node","board_type":"history","check_date":"2023-03-17","information":"board","name":"Bad Elster - Kultur-und Festspielstadt","tourism":"information","traffic_sign":"DE:386.3"},"type":"Feature","id":"node/4112348590","geometry":{"type":"Point","coordinates":[12.1924163,50.4935466]}},{"properties":{"@id":4189912314,"@type":"node","board_type":"history","description":"Urnenfelderzeitliches Gräberfeld zwischen Grundfeld und Reundorf","information":"board","name":"Entdeckungen auf den Spuren der Kelten","ref":"B 3","tourism":"information"},"type":"Feature","id":"node/4189912314","geometry":{"type":"Point","coordinates":[11.0276497,50.1250307]}},{"properties":{"@id":4330826480,"@type":"node","board_type":"history","check_date":"2024-03-04","information":"board","name":"AllerHoheit","tourism":"information"},"type":"Feature","id":"node/4330826480","geometry":{"type":"Point","coordinates":[10.7336297,52.4415555]}},{"properties":{"@id":4347538909,"@type":"node","board_type":"history","check_date":"2025-02-05","information":"board","name":"Weißenstadt Roggenkultur & Kunst - Oberfranken","tourism":"information","traffic_sign":"DE:386.3"},"type":"Feature","id":"node/4347538909","geometry":{"type":"Point","coordinates":[11.6780552,50.0871976]}},{"properties":{"@id":4347547142,"@type":"node","board_type":"history","check_date":"2020-12-30","information":"board","name":"Münchberg","tourism":"information","traffic_sign":"DE:386.3"},"type":"Feature","id":"node/4347547142","geometry":{"type":"Point","coordinates":[11.7421221,50.1323457]}},{"properties":{"@id":4347557586,"@type":"node","board_type":"history","check_date":"2021-12-25","information":"board","name":"Vogtland - Bäder und Musik","tourism":"information","traffic_sign":"DE:386.3"},"type":"Feature","id":"node/4347557586","geometry":{"type":"Point","coordinates":[12.0124454,50.3991443]}},{"properties":{"@id":4347558076,"@type":"node","board_type":"history","check_date":"2021-07-27","information":"board","name":"Plauen 7.10.89 Friedliche Revolution","tourism":"information","traffic_sign":"DE:386.3"},"type":"Feature","id":"node/4347558076","geometry":{"type":"Point","coordinates":[12.1802949,50.4590209]}},{"properties":{"@id":4347565897,"@type":"node","board_type":"history","check_date":"2023-03-17","information":"board","name":"Bad Elster Kultur- und Festspielstadt","tourism":"information","traffic_sign":"DE:386.3"},"type":"Feature","id":"node/4347565897","geometry":{"type":"Point","coordinates":[12.1299782,50.4343028]}},{"properties":{"@id":4347566582,"@type":"node","board_type":"history","check_date":"2021-10-09","information":"board","name":"Plauen - Stadt der Spitze","tourism":"information","traffic_sign":"DE:386.3"},"type":"Feature","id":"node/4347566582","geometry":{"type":"Point","coordinates":[12.1418953,50.4351897]}},{"properties":{"@id":4347567095,"@type":"node","board_type":"history","check_date":"2023-03-17","information":"board","name":"Schloss Voigtsberg - Oelsnitz/Vogtl.","tourism":"information","traffic_sign":"DE:386.3"},"type":"Feature","id":"node/4347567095","geometry":{"type":"Point","coordinates":[12.1451533,50.4358323]}},{"properties":{"@id":4347568015,"@type":"node","board_type":"history","check_date":"2021-10-09","information":"board","name":"Erich Ohser in Plauen","tourism":"information","traffic_sign":"DE:386.3"},"type":"Feature","id":"node/4347568015","geometry":{"type":"Point","coordinates":[12.1774618,50.4567114]}},{"properties":{"@id":4347571123,"@type":"node","board_type":"history","check_date":"2021-07-08","information":"board","name":"Deutsche Raumfahrtausstellung","tourism":"information","traffic_sign":"DE:386.3"},"type":"Feature","id":"node/4347571123","geometry":{"type":"Point","coordinates":[12.284767,50.5655431]}},{"properties":{"@id":4347576792,"@type":"node","board_type":"history","check_date":"2024-04-15","information":"board","name":"August Horch Museum Zwickau","tourism":"information","traffic_sign":"DE:386.3"},"type":"Feature","id":"node/4347576792","geometry":{"type":"Point","coordinates":[12.4097643,50.6156857]}},{"properties":{"@id":4347578308,"@type":"node","board_type":"history","check_date":"2021-11-08","information":"board","name":"Kurbad Schlema","tourism":"information","traffic_sign":"DE:386.3"},"type":"Feature","id":"node/4347578308","geometry":{"type":"Point","coordinates":[12.5432387,50.6760893]}},{"properties":{"@id":4347578339,"@type":"node","board_type":"history","check_date":"2021-12-25","information":"board","name":"Schwarzenberg - Perle des Erzgebirges","tourism":"information","traffic_sign":"DE:386.3"},"type":"Feature","id":"node/4347578339","geometry":{"type":"Point","coordinates":[12.6329109,50.6823326]}},{"properties":{"@id":4347581073,"@type":"node","board_type":"history","check_date":"2024-04-15","information":"board","name":"Thermenregion Erzgebirge","tourism":"information","traffic_sign":"DE:386.3"},"type":"Feature","id":"node/4347581073","geometry":{"type":"Point","coordinates":[12.6586389,50.6895298]}},{"properties":{"@id":4347583895,"@type":"node","board_type":"history","check_date":"2024-04-15","information":"board","name":"Modellbahnland Schönfeld/Erzgebirge","tourism":"information","traffic_sign":"DE:386.3"},"type":"Feature","id":"node/4347583895","geometry":{"type":"Point","coordinates":[12.7354973,50.6964049]}},{"properties":{"@id":4347586571,"@type":"node","board_type":"history","check_date":"2022-01-11","information":"board","name":"Wasserschloß Klaffenbach","tourism":"information","traffic_sign":"DE:386.3"},"type":"Feature","id":"node/4347586571","geometry":{"type":"Point","coordinates":[12.8425892,50.7922079]}},{"properties":{"@id":4347590572,"@type":"node","board_type":"history","check_date":"2021-12-25","information":"board","name":"Burg Kriebstein","tourism":"information","traffic_sign":"DE:386.3"},"type":"Feature","id":"node/4347590572","geometry":{"type":"Point","coordinates":[12.9540887,50.8974474]}},{"properties":{"@id":4347591602,"@type":"node","board_type":"history","check_date":"2023-05-21","information":"board","name":"Schloss Wildeck Zschopau","tourism":"information","traffic_sign":"DE:386.3"},"type":"Feature","id":"node/4347591602","geometry":{"type":"Point","coordinates":[12.9621613,50.9011973]}},{"properties":{"@id":4347595646,"@type":"node","board_type":"history","check_date":"2021-12-30","information":"board","name":"Oederan - Stadt des Klein-Erzgebirges","tourism":"information","traffic_sign":"DE:386.3"},"type":"Feature","id":"node/4347595646","geometry":{"type":"Point","coordinates":[13.0038905,50.9134118]}},{"properties":{"@id":4347597786,"@type":"node","board_type":"history","check_date":"2024-04-06","information":"board","name":"Döbeln","tourism":"information","traffic_sign":"DE:386.3"},"type":"Feature","id":"node/4347597786","geometry":{"type":"Point","coordinates":[13.0617947,50.9377787]}},{"properties":{"@id":4347599559,"@type":"node","board_type":"history","check_date":"2021-10-02","information":"board","name":"Schloß Augustusburg","tourism":"information","traffic_sign":"DE:386.3"},"type":"Feature","id":"node/4347599559","geometry":{"type":"Point","coordinates":[13.0219518,50.9155209]}},{"properties":{"@id":4347605755,"@type":"node","board_type":"history","check_date":"2021-12-30","information":"board","name":"Blockhausen Kettensägenkunst","tourism":"information","traffic_sign":"DE:386.3"},"type":"Feature","id":"node/4347605755","geometry":{"type":"Point","coordinates":[13.065393,50.94663]}},{"properties":{"@id":4347625598,"@type":"node","board_type":"history","check_date":"2021-10-02","information":"board","name":"Dresden","tourism":"information","traffic_sign":"DE:386.3"},"type":"Feature","id":"node/4347625598","geometry":{"type":"Point","coordinates":[13.4802805,51.0591193]}},{"properties":{"@id":4347631288,"@type":"node","board_type":"history","check_date":"2022-06-05","information":"board","name":"Radebeul","tourism":"information","traffic_sign":"DE:386.3"},"type":"Feature","id":"node/4347631288","geometry":{"type":"Point","coordinates":[13.6196027,51.0658498]}},{"properties":{"@id":4347631810,"@type":"node","board_type":"history","check_date":"2022-11-16","information":"board","name":"Bierstadt Radeberg","tourism":"information","traffic_sign":"DE:386.3"},"type":"Feature","id":"node/4347631810","geometry":{"type":"Point","coordinates":[13.7893604,51.1587849]}},{"properties":{"@id":4347631811,"@type":"node","board_type":"history","check_date":"2022-11-16","information":"board","name":"Lessingstadt Kamenz","tourism":"information","traffic_sign":"DE:386.3"},"type":"Feature","id":"node/4347631811","geometry":{"type":"Point","coordinates":[13.8009492,51.1659355]}},{"properties":{"@id":4361448038,"@type":"node","board_type":"history","check_date":"2021-01-18","information":"board","name":"Aubinger Geschichtspfad","tourism":"information"},"type":"Feature","id":"node/4361448038","geometry":{"type":"Point","coordinates":[11.4143724,48.1671257]}},{"properties":{"@id":4374631393,"@type":"node","board_type":"history","check_date":"2021-11-14","information":"board","name":"Schloß Moritzburg","tourism":"information","traffic_sign":"DE:386.3"},"type":"Feature","id":"node/4374631393","geometry":{"type":"Point","coordinates":[13.745591,51.1821281]}},{"properties":{"@id":4374638450,"@type":"node","board_type":"history","information":"board","name":"Silberstadt Freiberg","tourism":"information","traffic_sign":"DE:386.3"},"type":"Feature","id":"node/4374638450","geometry":{"type":"Point","coordinates":[13.338644,51.0466043]}},{"properties":{"@id":4374638452,"@type":"node","board_type":"history","check_date":"2023-02-15","information":"board","name":"Wilsdruff","tourism":"information","traffic_sign":"DE:386.3"},"type":"Feature","id":"node/4374638452","geometry":{"type":"Point","coordinates":[13.5620215,51.0618612]}},{"properties":{"@id":4374639163,"@type":"node","board_type":"history","check_date":"2023-08-26","information":"board","name":"Hochschulstadt Mittweida","tourism":"information","traffic_sign":"DE:386.3"},"type":"Feature","id":"node/4374639163","geometry":{"type":"Point","coordinates":[13.1831429,51.0017006]}},{"properties":{"@id":4374640248,"@type":"node","board_type":"history","check_date":"2021-12-30","information":"board","name":"Burg Kriebstein","tourism":"information","traffic_sign":"DE:386.3"},"type":"Feature","id":"node/4374640248","geometry":{"type":"Point","coordinates":[13.169576,51.002107]}},{"properties":{"@id":4374640249,"@type":"node","board_type":"history","check_date":"2021-12-25","information":"board","name":"Gellert-Stadt Hainichen","tourism":"information","traffic_sign":"DE:386.3"},"type":"Feature","id":"node/4374640249","geometry":{"type":"Point","coordinates":[13.151604,50.9979465]}},{"properties":{"@id":4374640533,"@type":"node","board_type":"history","check_date":"2023-12-22","information":"board","name":"Oederan - Stadt des Klein-Erzgebirges","tourism":"information","traffic_sign":"DE:386.3"},"type":"Feature","id":"node/4374640533","geometry":{"type":"Point","coordinates":[13.0700016,50.9565884]}},{"properties":{"@id":4374640534,"@type":"node","board_type":"history","check_date":"2021-12-25","information":"board","name":"Schloß Augustenburg","tourism":"information","traffic_sign":"DE:386.3"},"type":"Feature","id":"node/4374640534","geometry":{"type":"Point","coordinates":[13.0643067,50.9458]}},{"properties":{"@id":4374642975,"@type":"node","board_type":"history","check_date":"2021-12-25","information":"board","name":"Villa Esche - Henry van de Velde","tourism":"information","traffic_sign":"DE:386.3"},"type":"Feature","id":"node/4374642975","geometry":{"type":"Point","coordinates":[13.0009645,50.9136707]}},{"properties":{"@id":4374643942,"@type":"node","board_type":"history","information":"board","name":"Industriemuseum Chemnitz","tourism":"information","traffic_sign":"DE:386.3"},"type":"Feature","id":"node/4374643942","geometry":{"type":"Point","coordinates":[12.961984,50.9016038]}},{"properties":{"@id":4374656370,"@type":"node","board_type":"history","check_date":"2024-04-15","information":"board","name":"Miniwelt & Minikosmos Lichtenstein","tourism":"information","traffic_sign":"DE:386.3"},"type":"Feature","id":"node/4374656370","geometry":{"type":"Point","coordinates":[12.7764524,50.7253603]}},{"properties":{"@id":4374656371,"@type":"node","board_type":"history","check_date":"2024-04-15","information":"board","name":"Schwarzenberg - Perle des Erzgebirges","tourism":"information","traffic_sign":"DE:386.3"},"type":"Feature","id":"node/4374656371","geometry":{"type":"Point","coordinates":[12.7772578,50.7260867]}},{"properties":{"@id":4374657322,"@type":"node","board_type":"history","information":"board","name":"daetz-centrum Lichtenstein","tourism":"information","traffic_sign":"DE:386.3"},"type":"Feature","id":"node/4374657322","geometry":{"type":"Point","coordinates":[12.7646967,50.7180971]}},{"properties":{"@id":4374658552,"@type":"node","board_type":"history","check_date":"2022-06-29","information":"board","name":"Kurbad Schlema","tourism":"information","traffic_sign":"DE:386.3"},"type":"Feature","id":"node/4374658552","geometry":{"type":"Point","coordinates":[12.7385153,50.6977426]}},{"properties":{"@id":4374658700,"@type":"node","board_type":"history","check_date":"2021-10-09","information":"board","name":"Aue - Friedenskirche","tourism":"information","traffic_sign":"DE:386.3"},"type":"Feature","id":"node/4374658700","geometry":{"type":"Point","coordinates":[12.7255793,50.6940909]}},{"properties":{"@id":4374658788,"@type":"node","board_type":"history","check_date":"2024-04-06","information":"board","name":"Robert-Schumann-Stadt Zwickau","tourism":"information","traffic_sign":"DE:386.3"},"type":"Feature","id":"node/4374658788","geometry":{"type":"Point","coordinates":[12.6217545,50.6850321]}},{"properties":{"@id":4374659510,"@type":"node","board_type":"history","check_date":"2021-07-08","information":"board","name":"Erich Ohser in Plauen","tourism":"information","traffic_sign":"DE:386.3"},"type":"Feature","id":"node/4374659510","geometry":{"type":"Point","coordinates":[12.2923135,50.5761279]}},{"properties":{"@id":4374664433,"@type":"node","board_type":"history","check_date":"2024-04-15","information":"board","name":"Göltzschtalbrücke","tourism":"information","traffic_sign":"DE:386.3"},"type":"Feature","id":"node/4374664433","geometry":{"type":"Point","coordinates":[12.2842611,50.5668043]}},{"properties":{"@id":4374668315,"@type":"node","board_type":"history","check_date":"2024-04-15","information":"board","name":"Plauen - Stadt der Spitze","tourism":"information","traffic_sign":"DE:386.3"},"type":"Feature","id":"node/4374668315","geometry":{"type":"Point","coordinates":[12.2473297,50.5312575]}},{"properties":{"@id":4374668316,"@type":"node","board_type":"history","check_date":"2024-04-15","information":"board","name":"Plauen 7.10.89 Friedliche Revolution","tourism":"information","traffic_sign":"DE:386.3"},"type":"Feature","id":"node/4374668316","geometry":{"type":"Point","coordinates":[12.2525126,50.5363593]}},{"properties":{"@id":4374672638,"@type":"node","board_type":"history","check_date":"2023-03-17","information":"board","name":"Schloß Voigtsberg - Oelsnitz/Vogtl.","tourism":"information","traffic_sign":"DE:386.3"},"type":"Feature","id":"node/4374672638","geometry":{"type":"Point","coordinates":[12.1793963,50.4588027]}},{"properties":{"@id":4374675413,"@type":"node","board_type":"history","check_date":"2021-07-27","information":"board","name":"Vogtland - Bäder und Musik","tourism":"information","traffic_sign":"DE:386.3"},"type":"Feature","id":"node/4374675413","geometry":{"type":"Point","coordinates":[12.1774989,50.4572294]}},{"properties":{"@id":4374700763,"@type":"node","board_type":"history","check_date":"2020-12-30","information":"board","name":"Münchberg","tourism":"information","traffic_sign":"DE:386.3"},"type":"Feature","id":"node/4374700763","geometry":{"type":"Point","coordinates":[11.7800148,50.2413135]}},{"properties":{"@id":4375218908,"@type":"node","board_type":"history","direction":"100","information":"board","name":"Dreiburgenland","tourism":"information","traffic_sign":"DE:386.3"},"type":"Feature","id":"node/4375218908","geometry":{"type":"Point","coordinates":[13.2436989,48.6751729]}},{"properties":{"@id":4375218912,"@type":"node","board_type":"history","direction":"90","information":"board","name":"Vilshofen - Abtei Schweiklberg","tourism":"information","traffic_sign":"DE:386.3"},"type":"Feature","id":"node/4375218912","geometry":{"type":"Point","coordinates":[13.2370133,48.6760649]}},{"properties":{"@id":4375260670,"@type":"node","board_type":"history","direction":"150","information":"board","name":"Ziegel + Kalkmuseum Flintsbach","tourism":"information","traffic_sign":"DE:386.3"},"type":"Feature","id":"node/4375260670","geometry":{"type":"Point","coordinates":[13.1655625,48.7102966]}},{"properties":{"@id":4375265245,"@type":"node","board_type":"history","check_date":"2023-10-14","direction":"130","information":"board","name":"Donautal - Ärchäologie-Asambarock","tourism":"information","traffic_sign":"DE:386.3"},"type":"Feature","id":"node/4375265245","geometry":{"type":"Point","coordinates":[13.0770779,48.753617]}},{"properties":{"@id":4375450405,"@type":"node","board_type":"history","check_date":"2023-09-25","information":"board","name":"Barocke Schmuzerkirche Landgrafenstadt Pfreimd","tourism":"information","traffic_sign":"DE:386.3"},"type":"Feature","id":"node/4375450405","geometry":{"type":"Point","coordinates":[12.1927978,49.4744527]}},{"properties":{"@id":4375450406,"@type":"node","board_type":"history","check_date":"2022-07-24","information":"board","name":"Oberpfälzer Wald","tourism":"information","traffic_sign":"DE:386.3"},"type":"Feature","id":"node/4375450406","geometry":{"type":"Point","coordinates":[12.1168127,49.1967122]}},{"properties":{"@id":4375463050,"@type":"node","board_type":"history","check_date":"2023-09-25","information":"board","name":"KZ-Gedenkstätte Flossenbürg - Nächste Ausfahrt","tourism":"information","traffic_sign":"DE:386.3"},"type":"Feature","id":"node/4375463050","geometry":{"type":"Point","coordinates":[12.1567417,49.7288006]}},{"properties":{"@id":4413930492,"@type":"node","board_type":"history","check_date":"2021-12-31","information":"board","name":"Lich - Historische Altstadt","tourism":"information","traffic_sign":"DE:386.3"},"type":"Feature","id":"node/4413930492","geometry":{"type":"Point","coordinates":[8.7890398,50.4536901]}},{"properties":{"@id":4413931766,"@type":"node","board_type":"history","check_date":"2022-06-03","information":"board","name":"Wetzlar - Goethe- und Optikstadt","tourism":"information","traffic_sign":"DE:386.3"},"type":"Feature","id":"node/4413931766","geometry":{"type":"Point","coordinates":[8.5845967,50.5342627]}},{"properties":{"@id":4413940733,"@type":"node","board_type":"history","check_date":"2022-05-31","information":"board","name":"Historische Altstadt Herborn","tourism":"information","traffic_sign":"DE:386.3"},"type":"Feature","id":"node/4413940733","geometry":{"type":"Point","coordinates":[8.3072041,50.663325]}},{"properties":{"@id":4413945815,"@type":"node","board_type":"history","check_date":"2021-11-11","information":"board","name":"Siegerland -Wittgenstein","tourism":"information","traffic_sign":"DE:386.3"},"type":"Feature","id":"node/4413945815","geometry":{"type":"Point","coordinates":[8.0994404,50.8056545]}},{"properties":{"@id":4413946630,"@type":"node","board_type":"history","check_date":"2021-11-11","information":"board","name":"Historischer Stadtkern Freudenberg","tourism":"information","traffic_sign":"DE:386.3"},"type":"Feature","id":"node/4413946630","geometry":{"type":"Point","coordinates":[7.92686,50.8924137]}},{"properties":{"@id":4413946717,"@type":"node","board_type":"history","check_date":"2022-03-14","information":"board","name":"Historischer Stadtkern Siegen","tourism":"information","traffic_sign":"DE:386.3"},"type":"Feature","id":"node/4413946717","geometry":{"type":"Point","coordinates":[8.0175998,50.8355186]}},{"properties":{"@id":4558667265,"@type":"node","board_type":"history","information":"board","name":"Festung Lichtenau","tourism":"information","traffic_sign":"DE:386.3"},"type":"Feature","id":"node/4558667265","geometry":{"type":"Point","coordinates":[10.6695435,49.2590369]}},{"properties":{"@id":4558980763,"@type":"node","board_type":"history","check_date":"2021-09-29","information":"board","name":"Schlosspark","tourism":"information"},"type":"Feature","id":"node/4558980763","geometry":{"type":"Point","coordinates":[13.6471238,51.0346666]}},{"properties":{"@id":4580797311,"@type":"node","board_type":"history","direction":"127","information":"board","name":"Klosterruine Frauenalb","tourism":"information","traffic_sign":"DE:386.3"},"type":"Feature","id":"node/4580797311","geometry":{"type":"Point","coordinates":[8.5775274,48.9307943]}},{"properties":{"@id":4727241455,"@type":"node","board_type":"history","information":"board","name":"Hallonen Rundweg - Friedenskirche Maschen - Infotafel","operator":"Arbeitskreis Hallonen Rundweg","tourism":"information","website":"http://Hallonen-Rundweg.de"},"type":"Feature","id":"node/4727241455","geometry":{"type":"Point","coordinates":[10.0384242,53.3884354]}},{"properties":{"@id":4801924602,"@type":"node","board_type":"history","check_date":"2022-05-02","description":"Hier befand sich seit dem 7./8. Jh. eine slawische Burg","information":"board","name":"Hier stand die Blankenburg","tourism":"information"},"type":"Feature","id":"node/4801924602","geometry":{"type":"Point","coordinates":[13.4477933,52.6001351]}},{"properties":{"@id":4832592474,"@type":"node","board_type":"history","check_date":"2024-09-06","information":"board","name":"Der Wellesborn","tourism":"information"},"type":"Feature","id":"node/4832592474","geometry":{"type":"Point","coordinates":[9.0922988,50.1905273]}},{"properties":{"@id":4847370489,"@type":"node","board_type":"history","check_date":"2023-06-14","information":"board","inscription":"Stuttgart Schlossplatz","name":"Stuttgart Schlossplatz","tourism":"information","traffic_sign":"DE:386.3"},"type":"Feature","id":"node/4847370489","geometry":{"type":"Point","coordinates":[9.1835242,48.7000002]}},{"properties":{"@id":4870015816,"@type":"node","board_type":"history","check_date":"2023-12-26","information":"board","name":"Deutsches Panzermuseum Munster","tourism":"information"},"type":"Feature","id":"node/4870015816","geometry":{"type":"Point","coordinates":[9.9539744,53.0599277]}},{"properties":{"@id":4885771853,"@type":"node","board_type":"history","check_date":"2021-06-23","information":"board","name":"1000 Jahre Kloster Walsrode","tourism":"information","traffic_sign":"DE:386.3"},"type":"Feature","id":"node/4885771853","geometry":{"type":"Point","coordinates":[9.6317428,52.8068605]}},{"properties":{"@id":4886320367,"@type":"node","board_type":"history","check_date":"2023-12-31","information":"board","name":"Deutsches Panzermuseum Munster","tourism":"information","traffic_sign":"DE:386.3"},"type":"Feature","id":"node/4886320367","geometry":{"type":"Point","coordinates":[9.9060094,52.9669179]}},{"properties":{"@id":4897705280,"@type":"node","board_type":"history","check_date":"2021-12-26","information":"board","name":"1000 Jahre Kloster Walsrode","tourism":"information"},"type":"Feature","id":"node/4897705280","geometry":{"type":"Point","coordinates":[9.4779235,52.8808066]}},{"properties":{"@id":4920617831,"@type":"node","board_type":"history","check_date":"2021-04-16","information":"board","name":"Schloss Winsen (Luhe)","tourism":"information"},"type":"Feature","id":"node/4920617831","geometry":{"type":"Point","coordinates":[10.0949536,53.3742644]}},{"properties":{"@id":5016481820,"@type":"node","board_type":"history","check_date":"2023-07-03","information":"board","name":"Schloß Thurnau","tourism":"information","traffic_sign":"DE:386.3"},"type":"Feature","id":"node/5016481820","geometry":{"type":"Point","coordinates":[11.3465555,50.0087176]}},{"properties":{"@id":5071985491,"@type":"node","board_type":"history","check_date":"2021-09-04","information":"board","name":"Karl-May-Museum Radebeul","tourism":"information","traffic_sign":"DE:386.3"},"type":"Feature","id":"node/5071985491","geometry":{"type":"Point","coordinates":[13.7887182,51.1588735]}},{"properties":{"@id":5218362837,"@type":"node","board_type":"history","direction":"216","information":"board","name":"Schloss Ettlingen","tourism":"information","traffic_sign":"DE:386.3"},"type":"Feature","id":"node/5218362837","geometry":{"type":"Point","coordinates":[8.3680764,48.9448488]}},{"properties":{"@id":5260385205,"@type":"node","board_type":"history","check_date":"2023-02-11","direction":"210","information":"board","name":"Besigheim - Fachwerk und Wein","tourism":"information","traffic_sign":"DE:386.3"},"type":"Feature","id":"node/5260385205","geometry":{"type":"Point","coordinates":[9.2260041,48.9681652]}},{"properties":{"@id":5270374409,"@type":"node","board_type":"history","check_date":"2024-04-06","direction":"354","information":"board","name":"Museumslandschaft Schramberg. Schwarzwald","tourism":"information","traffic_sign":"DE:386.3"},"type":"Feature","id":"node/5270374409","geometry":{"type":"Point","coordinates":[8.6471522,48.3247939]}},{"properties":{"@id":5274202868,"@type":"node","board_type":"history","check_date":"2022-11-12","information":"board","name":"Therme Kneipp-Heilbad Bad Bergzabern","tourism":"information","traffic_sign":"DE:386.3"},"type":"Feature","id":"node/5274202868","geometry":{"type":"Point","coordinates":[8.1738469,49.1208332]}},{"properties":{"@id":5325827622,"@type":"node","board_type":"history","check_date":"2025-01-15","direction":"26","information":"board","name":"Laufen am Neckar - Hölderlin 2020","tourism":"information","traffic_sign":"DE:386.3"},"type":"Feature","id":"node/5325827622","geometry":{"type":"Point","coordinates":[9.287551,49.0795374]}},{"properties":{"@id":5360674443,"@type":"node","board_type":"history","check_date":"2022-11-16","information":"board","name":"Barockschloss Rammenau","tourism":"information","traffic_sign":"DE:386.3"},"type":"Feature","id":"node/5360674443","geometry":{"type":"Point","coordinates":[14.114816,51.1736314]}},{"properties":{"@id":5360674446,"@type":"node","board_type":"history","check_date":"2022-08-21","information":"board","name":"Zoo & Schloss Hoyerswerda","tourism":"information","traffic_sign":"DE:386.3"},"type":"Feature","id":"node/5360674446","geometry":{"type":"Point","coordinates":[14.1084127,51.1743449]}},{"properties":{"@id":5360674447,"@type":"node","addr:postcode":"01877","board_type":"history","information":"board","name":"Lausitzer Seenland","name:de":"Lausitzer Seenland Łužiska jězorina","name:hsb":"Łužiska jězorina","tourism":"information","traffic_sign":"DE:386.3"},"type":"Feature","id":"node/5360674447","geometry":{"type":"Point","coordinates":[14.1035349,51.1754648]}},{"properties":{"@id":5360674462,"@type":"node","board_type":"history","check_date":"2022-11-16","information":"board","name":"Energiefabrik Knappenrode","tourism":"information","traffic_sign":"DE:386.3"},"type":"Feature","id":"node/5360674462","geometry":{"type":"Point","coordinates":[14.067178,51.1695726]}},{"properties":{"@id":5398753674,"@type":"node","board_type":"history","information":"board","name":"Schloss Wackerbarth","tourism":"information","traffic_sign":"DE:386.3"},"type":"Feature","id":"node/5398753674","geometry":{"type":"Point","coordinates":[13.7232616,51.2556753]}},{"properties":{"@id":5419162539,"@type":"node","board_type":"history","check_date":"2023-05-21","information":"board","name":"Schloss Schönfeld","tourism":"information","traffic_sign":"DE:386.3"},"type":"Feature","id":"node/5419162539","geometry":{"type":"Point","coordinates":[13.7245202,51.2540739]}},{"properties":{"@id":5419911672,"@type":"node","board_type":"history","check_date":"2023-04-13","information":"board","name":"Kulturschloss Großenhain","tourism":"information","traffic_sign":"DE:386.3"},"type":"Feature","id":"node/5419911672","geometry":{"type":"Point","coordinates":[13.7296494,51.3054012]}},{"properties":{"@id":5424940543,"@type":"node","board_type":"history","check_date":"2021-08-13","information":"board","name":"Völkerschlachtdenkmal","tourism":"information","traffic_sign":"DE:386.3"},"type":"Feature","id":"node/5424940543","geometry":{"type":"Point","coordinates":[12.5114613,51.3326779]}},{"properties":{"@id":5434962035,"@type":"node","board_type":"history","check_date":"2022-07-30","information":"board","name":"Torgau Stadt der Renaissance","tourism":"information","traffic_sign":"DE:386.3"},"type":"Feature","id":"node/5434962035","geometry":{"type":"Point","coordinates":[12.488744,51.3587056]}},{"properties":{"@id":5443340290,"@type":"node","board_type":"history","check_date":"2023-06-21","information":"board","name":"Klosterpark Altzella","tourism":"information","traffic_sign":"DE:386.3"},"type":"Feature","id":"node/5443340290","geometry":{"type":"Point","coordinates":[13.250783,51.0887453]}},{"properties":{"@id":5443477826,"@type":"node","board_type":"history","check_date":"2024-07-14","information":"board","name":"Riesa an der Elbe","tourism":"information","traffic_sign":"DE:386.3"},"type":"Feature","id":"node/5443477826","geometry":{"type":"Point","coordinates":[13.1512876,51.1406972]}},{"properties":{"@id":5447823626,"@type":"node","board_type":"history","check_date":"2022-07-30","information":"board","name":"Torgau Schloss Hartenfels","tourism":"information","traffic_sign":"DE:386.3"},"type":"Feature","id":"node/5447823626","geometry":{"type":"Point","coordinates":[12.8896834,51.2330047]}},{"properties":{"@id":5448817492,"@type":"node","board_type":"history","check_date":"2022-06-20","information":"board","name":"Schloss Colditz","tourism":"information","traffic_sign":"DE:386.3"},"type":"Feature","id":"node/5448817492","geometry":{"type":"Point","coordinates":[12.7687746,51.2593334]}},{"properties":{"@id":5448817494,"@type":"node","board_type":"history","check_date":"2022-06-05","information":"board","name":"Schloss Trebsen","tourism":"information","traffic_sign":"DE:386.3"},"type":"Feature","id":"node/5448817494","geometry":{"type":"Point","coordinates":[12.7732087,51.2593459]}},{"properties":{"@id":5450626731,"@type":"node","board_type":"history","check_date":"2022-06-20","information":"board","name":"Sächsisches Burgenland","tourism":"information","traffic_sign":"DE:386.3"},"type":"Feature","id":"node/5450626731","geometry":{"type":"Point","coordinates":[12.7654503,51.2588724]}},{"properties":{"@id":5450626737,"@type":"node","board_type":"history","check_date":"2021-08-13","information":"board","name":"Schloss Colditz","tourism":"information","traffic_sign":"DE:386.3"},"type":"Feature","id":"node/5450626737","geometry":{"type":"Point","coordinates":[12.7056331,51.2613576]}},{"properties":{"@id":5453874795,"@type":"node","board_type":"history","check_date":"2022-06-05","information":"board","name":"Schloss und Park Machern","tourism":"information","traffic_sign":"DE:386.3"},"type":"Feature","id":"node/5453874795","geometry":{"type":"Point","coordinates":[12.5686061,51.3094492]}},{"properties":{"@id":5455256440,"@type":"node","board_type":"history","check_date":"2022-06-05","direction":"292","image":"https://photos.app.goo.gl/7k7npuM5q8umCfLy5","information":"board","name":"Wermsdorf Schloss Hubertusburg","operator":"Gemeinde Wermsdorf","tourism":"information","traffic_sign":"DE:386.3"},"type":"Feature","id":"node/5455256440","geometry":{"type":"Point","coordinates":[12.8344475,51.2522927]}},{"properties":{"@id":5459891850,"@type":"node","board_type":"history","information":"board","name":"Seepark Auenhain","tourism":"information","traffic_sign":"DE:386.3"},"type":"Feature","id":"node/5459891850","geometry":{"type":"Point","coordinates":[12.5304477,51.2935728]}},{"properties":{"@id":5482650281,"@type":"node","board_type":"history","information":"board","name":"Wiprecht von Groitzsch","tourism":"information","traffic_sign":"DE:386.3"},"type":"Feature","id":"node/5482650281","geometry":{"type":"Point","coordinates":[12.2908607,51.2592964]}},{"properties":{"@id":5486102318,"@type":"node","board_type":"history","check_date":"2023-07-09","information":"board","name":"Barockschloss Delitzsch","tourism":"information","traffic_sign":"DE:386.3"},"type":"Feature","id":"node/5486102318","geometry":{"type":"Point","coordinates":[12.2093377,51.446574]}},{"properties":{"@id":5499569075,"@type":"node","board_type":"history","check_date":"2023-05-21","information":"board","name":"Textilindustrie Limbach-Oberfrohna","tourism":"information","traffic_sign":"DE:386.3"},"type":"Feature","id":"node/5499569075","geometry":{"type":"Point","coordinates":[12.7936704,50.8355027]}},{"properties":{"@id":5499569076,"@type":"node","board_type":"history","information":"board","name":"Karl-May-Geburtsstadt Hohenstein-Ernstthal","tourism":"information","traffic_sign":"DE:386.3"},"type":"Feature","id":"node/5499569076","geometry":{"type":"Point","coordinates":[12.7952682,50.8378629]}},{"properties":{"@id":5515905551,"@type":"node","board_type":"history","check_date":"2023-05-21","information":"board","name":"Töpferstadt Waldenburg","tourism":"information","traffic_sign":"DE:386.3"},"type":"Feature","id":"node/5515905551","geometry":{"type":"Point","coordinates":[12.6871719,50.8130781]}},{"properties":{"@id":5518994429,"@type":"node","board_type":"history","check_date":"2022-12-30","information":"board","name":"Schlösser Glauchau","tourism":"information","traffic_sign":"DE:386.3"},"type":"Feature","id":"node/5518994429","geometry":{"type":"Point","coordinates":[12.5813323,50.842931]}},{"properties":{"@id":5518994434,"@type":"node","board_type":"history","check_date":"2022-12-30","information":"board","name":"Historische Tuchfabrik Crimmitschau","tourism":"information","traffic_sign":"DE:386.3"},"type":"Feature","id":"node/5518994434","geometry":{"type":"Point","coordinates":[12.5902327,50.8393044]}},{"properties":{"@id":5540398409,"@type":"node","board_type":"history","check_date":"2022-12-30","information":"board","name":"August Horch Museum Zwickau","tourism":"information","traffic_sign":"DE:386.3"},"type":"Feature","id":"node/5540398409","geometry":{"type":"Point","coordinates":[12.476173,50.8277723]}},{"properties":{"@id":5540398411,"@type":"node","board_type":"history","check_date":"2025-03-29","information":"board","name":"Skatstadt Altenburg","tourism":"information","traffic_sign":"DE:386.3"},"type":"Feature","id":"node/5540398411","geometry":{"type":"Point","coordinates":[12.4849355,50.8314223]}},{"properties":{"@id":5543564788,"@type":"node","board_type":"history","information":"board","name":"Stadt Meerane","tourism":"information","traffic_sign":"DE:386.3"},"type":"Feature","id":"node/5543564788","geometry":{"type":"Point","coordinates":[12.4195236,50.8294201]}},{"properties":{"@id":5548353203,"@type":"node","board_type":"history","information":"board","name":"Schlösser Glauchau","tourism":"information","traffic_sign":"DE:386.3"},"type":"Feature","id":"node/5548353203","geometry":{"type":"Point","coordinates":[12.4615585,50.8245961]}},{"properties":{"@id":5557324798,"@type":"node","board_type":"history","check_date":"2022-08-16","information":"board","name":"Sächsisches Burgenland","tourism":"information","traffic_sign":"DE:386.3"},"type":"Feature","id":"node/5557324798","geometry":{"type":"Point","coordinates":[12.5219459,50.8411094]}},{"properties":{"@id":5557324799,"@type":"node","board_type":"history","information":"board","name":"Töpferstadt Waldenburg","tourism":"information","traffic_sign":"DE:386.3"},"type":"Feature","id":"node/5557324799","geometry":{"type":"Point","coordinates":[12.5136486,50.8405688]}},{"properties":{"@id":5562382387,"@type":"node","board_type":"history","check_date":"2022-09-19","information":"board","name":"Industriemuseum Chemnitz","tourism":"information","traffic_sign":"DE:386.3"},"type":"Feature","id":"node/5562382387","geometry":{"type":"Point","coordinates":[12.7832117,50.8287391]}},{"properties":{"@id":5592885835,"@type":"node","board_type":"history","check_date":"2022-06-19","information":"board","name":"Schloss Rochsburg","tourism":"information","traffic_sign":"DE:386.3"},"type":"Feature","id":"node/5592885835","geometry":{"type":"Point","coordinates":[12.7780853,50.884293]}},{"properties":{"@id":5596668106,"@type":"node","board_type":"history","check_date":"2022-09-19","information":"board","name":"Burgstädt","tourism":"information","traffic_sign":"DE:386.3"},"type":"Feature","id":"node/5596668106","geometry":{"type":"Point","coordinates":[12.7613175,50.8857036]}},